[
  {
    "id": "ラーメン",
    "name": "ラーメン",
    "kana": "らーめん",
    "imageQuery": "ramen",
    "regions": [
      {
        "id": "ラーメン-札幌市",
        "name": "札幌市",
        "prefecture": "北海道",
        "description": "ラーメンサラダ",
        "lat": 43.0617713,
        "lng": 141.3544506
      },
      {
        "id": "ラーメン-旭川市",
        "name": "旭川市",
        "prefecture": "北海道",
        "description": "旭川ラーメン",
        "lat": 43.7708833,
        "lng": 142.3650083
      },
      {
        "id": "ラーメン-函館市",
        "name": "函館市",
        "prefecture": "北海道",
        "description": "函館塩ラーメン",
        "lat": 41.7686961,
        "lng": 140.7290599
      },
      {
        "id": "ラーメン-札幌市",
        "name": "札幌市",
        "prefecture": "北海道",
        "description": "ラーメンサラダ",
        "lat": 43.0617713,
        "lng": 141.3544506
      },
      {
        "id": "ラーメン-青森市",
        "name": "青森市",
        "prefecture": "青森県",
        "description": "味噌カレー牛乳ラーメン",
        "lat": 40.8222197,
        "lng": 140.7473524
      },
      {
        "id": "ラーメン-五所川原市",
        "name": "五所川原市",
        "prefecture": "青森県",
        "description": "十三湖しじみラーメン",
        "lat": 40.8076933,
        "lng": 140.4461156
      },
      {
        "id": "ラーメン-弘前市",
        "name": "弘前市",
        "prefecture": "青森県",
        "description": "弘前中みそラーメン",
        "lat": 40.6030626,
        "lng": 140.4640543
      },
      {
        "id": "ラーメン-釜石市",
        "name": "釜石市",
        "prefecture": "岩手県",
        "description": "釜石ラーメン",
        "lat": 39.2758046,
        "lng": 141.8857275
      },
      {
        "id": "ラーメン-横手市",
        "name": "横手市",
        "prefecture": "秋田県",
        "description": "十文字ラーメン",
        "lat": 39.3138283,
        "lng": 140.5665878
      },
      {
        "id": "ラーメン-南陽市",
        "name": "南陽市",
        "prefecture": "山形県",
        "description": "赤湯からみそラーメン",
        "lat": 32.9907299,
        "lng": 112.52851
      },
      {
        "id": "冷やしラーメン-山形市",
        "name": "山形市",
        "prefecture": "山形県",
        "description": "",
        "lat": 38.2459634,
        "lng": 140.3350967
      },
      {
        "id": "ラーメン-喜多方市",
        "name": "喜多方市",
        "prefecture": "福島県",
        "description": "喜多方ラーメン",
        "lat": 37.6513048,
        "lng": 139.8746281
      },
      {
        "id": "ラーメン-白河市",
        "name": "白河市",
        "prefecture": "福島県",
        "description": "白河ラーメン",
        "lat": 37.1266145,
        "lng": 140.211014
      },
      {
        "id": "ラーメン-会津若松市",
        "name": "会津若松市",
        "prefecture": "福島県",
        "description": "会津ラーメン",
        "lat": 37.4899827,
        "lng": 139.9277486
      },
      {
        "id": "ラーメン-郡山市",
        "name": "郡山市",
        "prefecture": "福島県",
        "description": "郡山ブラック",
        "lat": 37.4004775999999,
        "lng": 140.3596822
      },
      {
        "id": "ラーメン-ひたちなか市",
        "name": "ひたちなか市",
        "prefecture": "茨城県",
        "description": "スタミナラーメン",
        "lat": 36.3966506,
        "lng": 140.5347934
      },
      {
        "id": "ラーメン-佐野市",
        "name": "佐野市",
        "prefecture": "栃木県",
        "description": "佐野ラーメン",
        "lat": 36.3143908,
        "lng": 139.5783915
      },
      {
        "id": "ラーメン-富津市",
        "name": "富津市",
        "prefecture": "千葉県",
        "description": "竹岡式ラーメン",
        "lat": 35.3040598,
        "lng": 139.8571263
      },
      {
        "id": "ラーメン-長南町",
        "name": "長南町",
        "prefecture": "千葉県",
        "description": "アリランラーメン",
        "lat": 35.3864095,
        "lng": 140.2371693
      },
      {
        "id": "ラーメン-中央区（日本橋）",
        "name": "中央区（日本橋）",
        "prefecture": "東京都",
        "description": "東京ラーメン",
        "lat": 35.6811836,
        "lng": 139.7741538
      },
      {
        "id": "ラーメン-千代田区",
        "name": "千代田区",
        "prefecture": "東京都",
        "description": "神保町ラーメン",
        "lat": 35.6940309,
        "lng": 139.7537719
      },
      {
        "id": "ラーメン-港区（三田）",
        "name": "港区（三田）",
        "prefecture": "東京都",
        "description": "二郎ラーメン",
        "lat": 35.647202,
        "lng": 139.7409333
      },
      {
        "id": "ラーメン-八王子市",
        "name": "八王子市",
        "prefecture": "東京都",
        "description": "八王子ラーメン",
        "lat": 35.6664381,
        "lng": 139.3160068
      },
      {
        "id": "ラーメン-横浜市",
        "name": "横浜市",
        "prefecture": "神奈川県",
        "description": "家系ラーメン",
        "lat": 35.4436739,
        "lng": 139.6379639
      },
      {
        "id": "ラーメン-横浜市",
        "name": "横浜市",
        "prefecture": "神奈川県",
        "description": "サンマーメン",
        "lat": 35.4436739,
        "lng": 139.6379639
      },
      {
        "id": "ラーメン-小田原市",
        "name": "小田原市",
        "prefecture": "神奈川県",
        "description": "小田原ラーメン",
        "lat": 35.2648307,
        "lng": 139.1523086
      },
      {
        "id": "ラーメン-三条市",
        "name": "三条市",
        "prefecture": "新潟県",
        "description": "三条カレーラーメン",
        "lat": 37.6365293,
        "lng": 138.9616061
      },
      {
        "id": "ラーメン-上越市",
        "name": "上越市",
        "prefecture": "新潟県",
        "description": "上越ラーメン",
        "lat": 37.1478952,
        "lng": 138.236135
      },
      {
        "id": "ラーメン-新潟市",
        "name": "新潟市",
        "prefecture": "新潟県",
        "description": "新潟濃厚味噌ラーメン",
        "lat": 37.9185345,
        "lng": 139.069444
      },
      {
        "id": "ラーメン-燕市",
        "name": "燕市",
        "prefecture": "新潟県",
        "description": "燕背脂ラーメン",
        "lat": 37.6730962,
        "lng": 138.8822389
      },
      {
        "id": "ラーメン-富山市",
        "name": "富山市",
        "prefecture": "富山県",
        "description": "ブラックラーメン",
        "lat": 36.6958223,
        "lng": 137.2137211
      },
      {
        "id": "ラーメン-敦賀市",
        "name": "敦賀市",
        "prefecture": "福井県",
        "description": "敦賀ラーメン",
        "lat": 35.6459465,
        "lng": 136.0556972
      },
      {
        "id": "ラーメン-安曇野市",
        "name": "安曇野市",
        "prefecture": "長野県",
        "description": "安曇野ラーメン",
        "lat": 36.1816,
        "lng": 137.5422
      },
      {
        "id": "ラーメン-藤枝市",
        "name": "藤枝市",
        "prefecture": "静岡県",
        "description": "藤枝朝ラーメン",
        "lat": 34.8673376,
        "lng": 138.2575386
      },
      {
        "id": "ラーメン-名古屋市",
        "name": "名古屋市",
        "prefecture": "愛知県",
        "description": "台湾ラーメン",
        "lat": 35.1814506,
        "lng": 136.9065571
      },
      {
        "id": "ラーメン-赤穂市",
        "name": "赤穂市",
        "prefecture": "兵庫県",
        "description": "赤穂塩ラーメン",
        "lat": 34.7550685,
        "lng": 134.3902271
      },
      {
        "id": "ラーメン-姫路市",
        "name": "姫路市",
        "prefecture": "兵庫県",
        "description": "姫路ラーメン",
        "lat": 34.8154176,
        "lng": 134.6855509
      },
      {
        "id": "ラーメン-奈良市",
        "name": "奈良市",
        "prefecture": "奈良県",
        "description": "奈良ラーメン",
        "lat": 34.685109,
        "lng": 135.8048019
      },
      {
        "id": "ラーメン-和歌山市",
        "name": "和歌山市",
        "prefecture": "和歌山県",
        "description": "和歌山ラーメン",
        "lat": 34.2303678,
        "lng": 135.1707405
      },
      {
        "id": "ラーメン-尾道市",
        "name": "尾道市",
        "prefecture": "広島県",
        "description": "尾道ラーメン",
        "lat": 34.4088998,
        "lng": 133.2049142
      },
      {
        "id": "ラーメン-米子市",
        "name": "米子市",
        "prefecture": "鳥取県",
        "description": "牛骨ラーメン",
        "lat": 35.4281164,
        "lng": 133.3309966
      },
      {
        "id": "ラーメン-倉吉市",
        "name": "倉吉市",
        "prefecture": "鳥取県",
        "description": "牛骨ラーメン",
        "lat": 35.4304213,
        "lng": 133.8260633
      },
      {
        "id": "ラーメン-松江市",
        "name": "松江市",
        "prefecture": "島根県",
        "description": "しじみラーメン",
        "lat": 35.4681908,
        "lng": 133.0484055
      },
      {
        "id": "ラーメン-徳島市",
        "name": "徳島市",
        "prefecture": "徳島県",
        "description": "徳島ラーメン",
        "lat": 34.0703652,
        "lng": 134.5549537
      },
      {
        "id": "ラーメン-須崎市",
        "name": "須崎市",
        "prefecture": "高知県",
        "description": "鍋焼きラーメン",
        "lat": 33.400844,
        "lng": 133.2829397
      },
      {
        "id": "ラーメン-福岡市（博多区）",
        "name": "福岡市（博多区）",
        "prefecture": "福岡県",
        "description": "博多ラーメン",
        "lat": 33.5835196,
        "lng": 130.4372709
      },
      {
        "id": "ラーメン-福岡市（中央区・長浜）",
        "name": "福岡市（中央区・長浜）",
        "prefecture": "福岡県",
        "description": "長浜ラーメン",
        "lat": 33.5941193,
        "lng": 130.3899507
      },
      {
        "id": "ラーメン-飯塚市",
        "name": "飯塚市",
        "prefecture": "福岡県",
        "description": "筑豊ラーメン",
        "lat": 33.6465627,
        "lng": 130.6911797
      },
      {
        "id": "ラーメン-久留米市",
        "name": "久留米市",
        "prefecture": "福岡県",
        "description": "久留米ラーメン",
        "lat": 33.3192356,
        "lng": 130.5083557
      },
      {
        "id": "焼きラーメン-福岡市",
        "name": "福岡市",
        "prefecture": "福岡県",
        "description": "",
        "lat": 33.5901838,
        "lng": 130.4016888
      },
      {
        "id": "ラーメン-玉名市",
        "name": "玉名市",
        "prefecture": "熊本県",
        "description": "玉名ラーメン",
        "lat": 32.9351492,
        "lng": 130.5627537
      },
      {
        "id": "ラーメン-鹿児島市",
        "name": "鹿児島市",
        "prefecture": "鹿児島県",
        "description": "鹿児島ラーメン",
        "lat": 31.5968539,
        "lng": 130.5571392
      }
    ]
  },
  
  {
    "id": "海鮮丼",
    "name": "海鮮丼",
    "kana": "かいせんどん",
    "imageQuery": "kaisendon",
    "regions": [
      {
        "id": "海鮮丼-小樽市",
        "name": "小樽市",
        "prefecture": "北海道",
        "description": "",
        "lat": 43.1902372,
        "lng": 140.994172
      },
      {
        "id": "海鮮丼-大船渡市",
        "name": "大船渡市",
        "prefecture": "岩手県",
        "description": "",
        "lat": 39.0832516,
        "lng": 141.708378
      },
      {
        "id": "海鮮丼-銚子市",
        "name": "銚子市",
        "prefecture": "千葉県",
        "description": "",
        "lat": 35.7340035,
        "lng": 140.8267464
      },
      {
        "id": "海鮮丼-七尾市",
        "name": "七尾市",
        "prefecture": "石川県",
        "description": "",
        "lat": 37.0438483,
        "lng": 136.9641261
      },
      {
        "id": "海鮮丼-輪島市",
        "name": "輪島市",
        "prefecture": "石川県",
        "description": "",
        "lat": 37.3910935,
        "lng": 136.9025211
      }
    ]
  },
  {
    "id": "寿司",
    "name": "寿司",
    "kana": "すし",
    "imageQuery": "sushi",
    "regions": [
      {
        "id": "寿司-小樽市",
        "name": "小樽市",
        "prefecture": "北海道",
        "description": "",
        "lat": 43.1902372,
        "lng": 140.994172
      },
      {
        "id": "寿司-塩竈市",
        "name": "塩竈市",
        "prefecture": "宮城県",
        "description": "塩釜寿司",
        "lat": 38.31437,
        "lng": 141.0220607
      },
      {
        "id": "寿司-中央区（銀座）",
        "name": "中央区（銀座）",
        "prefecture": "東京都",
        "description": "江戸前寿司",
        "lat": 35.6712228,
        "lng": 139.7664859
      },
      {
        "id": "寿司-富山市",
        "name": "富山市",
        "prefecture": "富山県",
        "description": "ます寿司",
        "lat": 36.6958223,
        "lng": 137.2137211
      },
      {
        "id": "寿司-志摩市",
        "name": "志摩市",
        "prefecture": "三重県",
        "description": "てこね寿司",
        "lat": 34.3281783,
        "lng": 136.8296341
      },
      {
        "id": "寿司-吉野町",
        "name": "吉野町",
        "prefecture": "奈良県",
        "description": "柿の葉寿司",
        "lat": 34.396001,
        "lng": 135.857574
      },
      {
        "id": "寿司-岡山市",
        "name": "岡山市",
        "prefecture": "岡山県",
        "description": "ままかり寿司",
        "lat": 34.656228,
        "lng": 133.9194179
      },
      {
        "id": "寿司-岩国市",
        "name": "岩国市",
        "prefecture": "山口県",
        "description": "岩国寿司",
        "lat": 34.1667451,
        "lng": 132.2191641
      },
      {
        "id": "寿司-佐伯市",
        "name": "佐伯市",
        "prefecture": "大分県",
        "description": "佐伯寿司",
        "lat": 32.959827,
        "lng": 131.9000563
      }
    ]
  },
  {
    "id": "ジンギスカン",
    "name": "ジンギスカン",
    "kana": "じんぎすかん",
    "imageQuery": "zingisukan",
    "regions": [
      {
        "id": "ジンギスカン-札幌市",
        "name": "札幌市",
        "prefecture": "北海道",
        "description": "",
        "lat": 43.0617713,
        "lng": 141.3544506
      },
      {
        "id": "ジンギスカン-滝川市",
        "name": "滝川市",
        "prefecture": "北海道",
        "description": "",
        "lat": 43.5578133,
        "lng": 141.9103331
      },
      {
        "id": "ジンギスカン-遠野市",
        "name": "遠野市",
        "prefecture": "岩手県",
        "description": "遠野ジンギスカン",
        "lat": 39.3306618,
        "lng": 141.5314512
      }
    ]
  },
  {
    "id": "ちゃんちゃん焼き",
    "name": "ちゃんちゃん焼き",
    "kana": "ちゃんちゃん焼き",
    "imageQuery": "tyantyanyaki",
    "regions": [
      {
        "id": "ちゃんちゃん焼き-石狩市",
        "name": "石狩市",
        "prefecture": "北海道",
        "description": "ちゃんちゃん焼き",
        "lat": 43.1714217,
        "lng": 141.3155371
      }
    ]
  },
  {
    "id": "鍋",
    "name": "鍋",
    "kana": "なべ",
    "imageQuery": "nabe",
    "regions": [
      {
        "id": "鍋-石狩市",
        "name": "石狩市",
        "prefecture": "北海道",
        "description": "石狩鍋",
        "lat": 43.1714217,
        "lng": 141.3155371
      },
      {
        "id": "鍋-男鹿市",
        "name": "男鹿市",
        "prefecture": "秋田県",
        "description": "しょっつる鍋",
        "lat": 39.8869086,
        "lng": 139.8476079
      },
      {
        "id": "鍋-各務原市",
        "name": "各務原市",
        "prefecture": "岐阜県",
        "description": "各務原キムチ鍋",
        "lat": 35.3989229,
        "lng": 136.8484472
      },
      {
        "id": "鍋-津山市",
        "name": "津山市",
        "prefecture": "岡山県",
        "description": "津山そずり鍋",
        "lat": 35.0691643,
        "lng": 134.0045802
      }
    ]
  },
  
  {
    "id": "ホタテ",
    "name": "ホタテ",
    "kana": "ほたて",
    "imageQuery": "hotate",
    "regions": [
      {
        "id": "ホタテ-紋別市",
        "name": "紋別市",
        "prefecture": "北海道",
        "description": "ホタテ料理",
        "lat": 44.3564386,
        "lng": 143.3543524
      },
      {
        "id": "ホタテ-湧別町",
        "name": "湧別町",
        "prefecture": "北海道",
        "description": "ホタテ料理",
        "lat": 44.1515482999999,
        "lng": 143.5729108
      }
    ]
  },
  {
    "id": "ウニ丼",
    "name": "ウニ丼",
    "kana": "うにどん",
    "imageQuery": "unidon",
    "regions": [
      {
        "id": "ウニ丼-積丹町",
        "name": "積丹町",
        "prefecture": "北海道",
        "description": "",
        "lat": 43.2987453,
        "lng": 140.5980588
      },
      {
        "id": "ウニ丼-利尻町",
        "name": "利尻町",
        "prefecture": "北海道",
        "description": "",
        "lat": 45.1870791,
        "lng": 141.1396511
      },
      {
        "id": "ウニ丼-礼文町",
        "name": "礼文町",
        "prefecture": "北海道",
        "description": "",
        "lat": 45.3032949,
        "lng": 141.0478819
      },
      {
        "id": "ウニ丼-久慈市",
        "name": "久慈市",
        "prefecture": "岩手県",
        "description": "三陸ウニ丼",
        "lat": 40.190462,
        "lng": 141.7755843
      },
      {
        "id": "ウニ丼-壱岐市",
        "name": "壱岐市",
        "prefecture": "長崎県",
        "description": "壱岐ウニ丼",
        "lat": 33.7499356,
        "lng": 129.6915216
      }
    ]
  },
  {
    "id": "いくら丼",
    "name": "いくら丼",
    "kana": "いくらどん",
    "imageQuery": "ikuradon",
    "regions": [
      {
        "id": "いくら丼-釧路市",
        "name": "釧路市",
        "prefecture": "北海道",
        "description": "",
        "lat": 42.9849413,
        "lng": 144.381804
      }
    ]
  },
  {
    "id": "ザンギ",
    "name": "ザンギ",
    "kana": "ざんぎ",
    "imageQuery": "zangi",
    "regions": [
      {
        "id": "ザンギ-釧路市",
        "name": "釧路市",
        "prefecture": "北海道",
        "description": "",
        "lat": 42.9849413,
        "lng": 144.381804
      }
    ]
  },
  {
    "id": "焼き鳥",
    "name": "焼き鳥",
    "kana": "やきとり",
    "imageQuery": "yakitori",
    "regions": [
      {
        "id": "焼き鳥-室蘭市",
        "name": "室蘭市",
        "prefecture": "北海道",
        "description": "室蘭やきとり",
        "lat": 42.3151792,
        "lng": 140.9737666
      },
      {
        "id": "焼き鳥-長門市",
        "name": "長門市",
        "prefecture": "山口県",
        "description": "長門焼き鳥",
        "lat": 34.370856,
        "lng": 131.18262
      },
      {
        "id": "焼き鳥-今治市",
        "name": "今治市",
        "prefecture": "愛媛県",
        "description": "今治焼き鳥",
        "lat": 34.0662024,
        "lng": 132.9977906
      },
      {
        "id": "焼き鳥-久留米市",
        "name": "久留米市",
        "prefecture": "福岡県",
        "description": "久留米焼き鳥",
        "lat": 33.3192356,
        "lng": 130.5083557
      },
      {
        "id": "焼き鳥-美唄市",
        "name": "美唄市",
        "prefecture": "北海道",
        "description": "美唄焼き鳥",
        "lat": 43.3328322,
        "lng": 141.8538617
      }
    ]
  },
  {
    "id": "海鮮炉端焼き",
    "name": "海鮮炉端焼き",
    "kana": "かいせんろばたやき",
    "imageQuery": "kaisenrobatayaki",
    "regions": [
      {
        "id": "海鮮炉端焼き-釧路市",
        "name": "釧路市",
        "prefecture": "北海道",
        "description": "",
        "lat": 42.9849413,
        "lng": 144.381804
      }
    ]
  },
  {
    "id": "ホルモン",
    "name": "ホルモン",
    "kana": "ほるもん",
    "imageQuery": "horumon",
    "regions": [
      {
        "id": "ホルモン-北見市",
        "name": "北見市",
        "prefecture": "北海道",
        "description": "塩ホルモン",
        "lat": 43.8039761,
        "lng": 143.8957837
      },
      {
        "id": "ホルモン-盛岡市",
        "name": "盛岡市",
        "prefecture": "岩手県",
        "description": "盛岡ホルモン",
        "lat": 39.7019558,
        "lng": 141.1543303
      },
      {
        "id": "ホルモン-横手市",
        "name": "横手市",
        "prefecture": "秋田県",
        "description": "横手ホルモン",
        "lat": 39.3138283,
        "lng": 140.5665878
      },
      {
        "id": "ホルモン-大阪市（鶴橋）",
        "name": "大阪市（鶴橋）",
        "prefecture": "大阪府",
        "description": "ホルモン焼き",
        "lat": 34.663663,
        "lng": 135.5352203
      }
    ]
  },
  {
    "id": "豚丼",
    "name": "豚丼",
    "kana": "ぶたどん",
    "imageQuery": "butadon",
    "regions": [
      {
        "id": "豚丼-帯広市",
        "name": "帯広市",
        "prefecture": "北海道",
        "description": "帯広豚丼",
        "lat": 42.9233354,
        "lng": 143.197199
      }
    ]
  },
  {
    "id": "牡蠣料理",
    "name": "牡蠣料理",
    "kana": "かきりょうり",
    "imageQuery": "kaki",
    "regions": [
      {
        "id": "牡蠣料理-厚岸町",
        "name": "厚岸町",
        "prefecture": "北海道",
        "description": "厚岸牡蠣料理",
        "lat": 43.0519506,
        "lng": 144.8473693
      },
      {
        "id": "牡蠣料理-松島町",
        "name": "松島町",
        "prefecture": "宮城県",
        "description": "",
        "lat": 38.3801905,
        "lng": 141.067293
      },
      {
        "id": "牡蠣料理-石巻市",
        "name": "石巻市",
        "prefecture": "宮城県",
        "description": "",
        "lat": 38.434332,
        "lng": 141.3028682
      },
      {
        "id": "牡蠣料理-気仙沼市",
        "name": "気仙沼市",
        "prefecture": "宮城県",
        "description": "",
        "lat": 38.907641,
        "lng": 141.5703316
      },
      {
        "id": "牡蠣料理-鶴岡市",
        "name": "鶴岡市",
        "prefecture": "山形県",
        "description": "庄内浜天然岩牡蠣料理",
        "lat": 38.7271972,
        "lng": 139.8267422
      },
      {
        "id": "牡蠣料理-能登町",
        "name": "能登町",
        "prefecture": "石川県",
        "description": "",
        "lat": 37.307967,
        "lng": 137.1490082
      },
      {
        "id": "牡蠣料理-七尾市",
        "name": "七尾市",
        "prefecture": "石川県",
        "description": "能登牡蠣料理",
        "lat": 37.0438483,
        "lng": 136.9641261
      },
      {
        "id": "牡蠣料理-小浜市",
        "name": "小浜市",
        "prefecture": "福井県",
        "description": "若狭牡蠣料理",
        "lat": 35.4956278,
        "lng": 135.7467206
      },
      {
        "id": "牡蠣料理-鳥羽市",
        "name": "鳥羽市",
        "prefecture": "三重県",
        "description": "",
        "lat": 34.4818168,
        "lng": 136.8432542
      },
      {
        "id": "牡蠣料理-志摩市",
        "name": "志摩市",
        "prefecture": "三重県",
        "description": "的矢牡蠣料理",
        "lat": 34.3281783,
        "lng": 136.8296341
      },
      {
        "id": "牡蠣料理-赤穂市",
        "name": "赤穂市",
        "prefecture": "兵庫県",
        "description": "",
        "lat": 34.7550685,
        "lng": 134.3902271
      },
      {
        "id": "牡蠣料理-廿日市市（宮島）",
        "name": "廿日市市（宮島）",
        "prefecture": "広島県",
        "description": "",
        "lat": 34.2732114,
        "lng": 132.3052488
      },
      {
        "id": "牡蠣料理-隠岐の島町",
        "name": "隠岐の島町",
        "prefecture": "島根県",
        "description": "隠岐岩牡蠣料理",
        "lat": 36.1214,
        "lng": 133.1959
      }
    ]
  },
  {
    "id": "昆布",
    "name": "昆布",
    "kana": "こんぶ",
    "imageQuery": "konbu",
    "regions": [
      {
        "id": "昆布-羅臼町",
        "name": "羅臼町",
        "prefecture": "北海道",
        "description": "羅臼昆布料理",
        "lat": 44.0218788,
        "lng": 145.1897129
      }
    ]
  },
  {
    "id": "海鮮",
    "name": "海鮮",
    "kana": "かいせん",
    "imageQuery": "kaisen",
    "regions": [
      {
        "id": "海鮮-斜里町",
        "name": "斜里町",
        "prefecture": "北海道",
        "description": "知床海鮮",
        "lat": 43.9114765,
        "lng": 144.6707651
      },
      {
        "id": "海鮮-勝浦市",
        "name": "勝浦市",
        "prefecture": "千葉県",
        "description": "勝浦朝市海鮮",
        "lat": 35.1522272,
        "lng": 140.3208833
      },
      {
        "id": "海鮮-中央区（築地）",
        "name": "中央区（築地）",
        "prefecture": "東京都",
        "description": "築地海鮮食べ歩き",
        "lat": 35.6640869,
        "lng": 139.7715977
      },
      {
        "id": "海鮮-長岡市（寺泊）",
        "name": "長岡市（寺泊）",
        "prefecture": "新潟県",
        "description": "寺泊魚のアメ横海鮮",
        "lat": 37.6203796,
        "lng": 138.8137832
      },
      {
        "id": "海鮮-天草市",
        "name": "天草市",
        "prefecture": "熊本県",
        "description": "天草海鮮",
        "lat": 32.4585255,
        "lng": 130.1934363
      }
    ]
  },
  {
    "id": "カレー",
    "name": "カレー",
    "kana": "かれー",
    "imageQuery": "kare-",
    "regions": [
      {
        "id": "カレー-美瑛町",
        "name": "美瑛町",
        "prefecture": "北海道",
        "description": "美瑛カレー",
        "lat": 43.5874260999999,
        "lng": 142.4666158
      },
      {
        "id": "カレー-千代田区（神田）",
        "name": "千代田区（神田）",
        "prefecture": "東京都",
        "description": "神田カレー",
        "lat": 35.6954378,
        "lng": 139.7675549
      },
      {
        "id": "カレー-横須賀市",
        "name": "横須賀市",
        "prefecture": "神奈川県",
        "description": "海軍カレー",
        "lat": 35.281498,
        "lng": 139.6721655
      },
      {
        "id": "カレー-金沢市",
        "name": "金沢市",
        "prefecture": "石川県",
        "description": "金沢カレー",
        "lat": 36.5597341,
        "lng": 136.6520376
      },
      {
        "id": "カレー-郡上市",
        "name": "郡上市",
        "prefecture": "岐阜県",
        "description": "奥美濃カレー",
        "lat": 35.7484949,
        "lng": 136.9643157
      },
      {
        "id": "カレー-大阪市",
        "name": "大阪市",
        "prefecture": "大阪府",
        "description": "自由軒カレー",
        "lat": 34.6937249,
        "lng": 135.5022535
      },
      {
        "id": "カレー-呉市",
        "name": "呉市",
        "prefecture": "広島県",
        "description": "呉海自カレー",
        "lat": 34.2489485,
        "lng": 132.5655271
      }
    ]
  },
  {
    "id": "焼肉",
    "name": "焼肉",
    "kana": "やきにく",
    "imageQuery": "yakiniku",
    "regions": [
      {
        "id": "焼肉-北見市",
        "name": "北見市",
        "prefecture": "北海道",
        "description": "北見焼肉",
        "lat": 43.8039761,
        "lng": 143.8957837
      }
    ]
  },
  {
    "id": "スパカツ",
    "name": "スパカツ",
    "kana": "すぱかつ",
    "imageQuery": "supakatu",
    "regions": [
      {
        "id": "スパカツ-釧路市",
        "name": "釧路市",
        "prefecture": "北海道",
        "description": "",
        "lat": 42.9849413,
        "lng": 144.381804
      }
    ]
  },
  {
    "id": "あげいも",
    "name": "あげいも",
    "kana": "あげいも",
    "imageQuery": "ageimo",
    "regions": [
      {
        "id": "あげいも-洞爺湖町",
        "name": "洞爺湖町",
        "prefecture": "北海道",
        "description": "",
        "lat": 42.5472040999999,
        "lng": 140.7663242
      }
    ]
  },
  
   
  {
    "id": "カレーそば",
    "name": "カレーそば",
    "kana": "かれーそば",
    "imageQuery": "kare-soba",
    "regions": [
      {
        "id": "カレーそば-夕張市",
        "name": "夕張市",
        "prefecture": "北海道",
        "description": "夕張カレーそば",
        "lat": 43.0567681,
        "lng": 141.9739433
      }
    ]
  },
  {
    "id": "焼そば",
    "name": "焼そば",
    "kana": "やきそば",
    "imageQuery": "yakisoba",
    "regions": [
      {
        "id": "焼そば-小樽市",
        "name": "小樽市",
        "prefecture": "北海道",
        "description": "小樽あんかけ焼そば",
        "lat": 43.1902372,
        "lng": 140.994172
      },
      {
        "id": "焼そば-仙台市",
        "name": "仙台市",
        "prefecture": "宮城県",
        "description": "仙台麻婆焼そば",
        "lat": 38.268195,
        "lng": 140.869418
      },
      {
        "id": "焼きそば-黒石市",
        "name": "黒石市",
        "prefecture": "青森県",
        "description": "黒石つゆ焼そば",
        "lat": 40.6426266,
        "lng": 140.5946719
      },
      {
        "id": "焼そば-横手市",
        "name": "横手市",
        "prefecture": "秋田県",
        "description": "横手焼そば",
        "lat": 39.3138283,
        "lng": 140.5665878
      },
      {
        "id": "焼そば-浪江町",
        "name": "浪江町",
        "prefecture": "福島県",
        "description": "なみえ焼そば",
        "lat": 37.4954732,
        "lng": 141.0017195
      },
      {
        "id": "焼そば-宇都宮市",
        "name": "宇都宮市",
        "prefecture": "栃木県",
        "description": "宇都宮焼そば",
        "lat": 36.5550745,
        "lng": 139.8826209
      },
      {
        "id": "焼そば-川越市",
        "name": "川越市",
        "prefecture": "埼玉県",
        "description": "川越太麺焼そば",
        "lat": 35.9251335,
        "lng": 139.4858042
      },
      {
        "id": "焼そば-湯河原町",
        "name": "湯河原町",
        "prefecture": "神奈川県",
        "description": "湯河原担々焼そば",
        "lat": 35.1478719,
        "lng": 139.1083302
      },
      {
        "id": "焼そば-糸魚川市",
        "name": "糸魚川市",
        "prefecture": "新潟県",
        "description": "糸魚川ブラック焼そば",
        "lat": 37.0390497,
        "lng": 137.862814
      },
      {
        "id": "焼そば-富士宮市",
        "name": "富士宮市",
        "prefecture": "静岡県",
        "description": "富士宮焼そば",
        "lat": 35.2221277,
        "lng": 138.6216491
      },
      {
        "id": "焼そば-日田市",
        "name": "日田市",
        "prefecture": "大分県",
        "description": "日田焼そば",
        "lat": 33.3206146,
        "lng": 130.9404064
      }
    ]
  },
  {
    "id": "マグロ料理",
    "name": "マグロ料理",
    "kana": "まぐろりょうり",
    "imageQuery": "maguro",
    "regions": [
      {
        "id": "マグロ料理-大間町",
        "name": "大間町",
        "prefecture": "青森県",
        "description": "大間マグロ",
        "lat": 41.5267934,
        "lng": 140.9074974
      },
      {
        "id": "マグロ料理-深浦町",
        "name": "深浦町",
        "prefecture": "青森県",
        "description": "深浦マグロ料理",
        "lat": 40.6478459,
        "lng": 139.9276062
      },
      {
        "id": "マグロ料理-三浦市",
        "name": "三浦市",
        "prefecture": "神奈川県",
        "description": "三崎まぐろ",
        "lat": 35.1441972,
        "lng": 139.6207584
      },
      {
        "id": "マグロ料理-伊勢市",
        "name": "伊勢市",
        "prefecture": "三重県",
        "description": "伊勢まぐろ料理",
        "lat": 34.4874863,
        "lng": 136.7092639
      },
      {
        "id": "マグロ料理-那智勝浦町",
        "name": "那智勝浦町",
        "prefecture": "和歌山県",
        "description": "",
        "lat": 33.6281006,
        "lng": 135.941153
      },
      {
        "id": "マグロ料理-境港市",
        "name": "境港市",
        "prefecture": "鳥取県",
        "description": "境港マグロ料理",
        "lat": 35.5396534,
        "lng": 133.2316204
      }
    ]
  },
  {
    "id": "せんべい汁",
    "name": "せんべい汁",
    "kana": "せんべいじる",
    "imageQuery": "senbeiziru",
    "regions": [
      {
        "id": "せんべい汁-八戸市",
        "name": "八戸市",
        "prefecture": "青森県",
        "description": "八戸せんべい汁",
        "lat": 40.5122055,
        "lng": 141.4882743
      }
    ]
  },
  {
    "id": "貝焼き味噌",
    "name": "貝焼き味噌",
    "kana": "かいやきみそ",
    "imageQuery": "kaiyakimiso",
    "regions": [
      {
        "id": "貝焼き味噌-青森市",
        "name": "青森市",
        "prefecture": "青森県",
        "description": "",
        "lat": 40.8222197,
        "lng": 140.7473524
      }
    ]
  },
  {
    "id": "いちご煮",
    "name": "いちご煮",
    "kana": "いちごに",
    "imageQuery": "itigoni",
    "regions": [
      {
        "id": "いちご煮-八戸市",
        "name": "八戸市",
        "prefecture": "青森県",
        "description": "",
        "lat": 40.5122055,
        "lng": 141.4882743
      }
    ]
  },
  {
    "id": "バラ焼き",
    "name": "バラ焼き",
    "kana": "ばらやき",
    "imageQuery": "barayaki",
    "regions": [
      {
        "id": "バラ焼き-十和田市",
        "name": "十和田市",
        "prefecture": "青森県",
        "description": "十和田バラ焼き",
        "lat": 40.6126011,
        "lng": 141.2069318
      }
    ]
  },
  {
    "id": "けの汁",
    "name": "けの汁",
    "kana": "けのしる",
    "imageQuery": "kenosiru",
    "regions": [
      {
        "id": "けの汁-弘前市",
        "name": "弘前市",
        "prefecture": "青森県",
        "description": "",
        "lat": 40.6030626,
        "lng": 140.4640543
      }
    ]
  },
  {
    "id": "しじみ貝焼き",
    "name": "しじみ貝焼き",
    "kana": "しじみかいやき",
    "imageQuery": "sizimikaiyaki",
    "regions": [
      {
        "id": "しじみ貝焼き-五所川原市",
        "name": "五所川原市",
        "prefecture": "青森県",
        "description": "",
        "lat": 40.8076933,
        "lng": 140.4461156
      }
    ]
  },
  {
    "id": "そば",
    "name": "そば",
    "kana": "そば",
    "imageQuery": "soba",
    "regions": [
      {
        "id": "そば-盛岡市",
        "name": "盛岡市",
        "prefecture": "岩手県",
        "description": "わんこそば",
        "lat": 39.7019558,
        "lng": 141.1543303
      },
      {
        "id": "そば-調布市",
        "name": "調布市",
        "prefecture": "東京都",
        "description": "深大寺そば",
        "lat": 35.6506111,
        "lng": 139.5407215
      },
      {
        "id": "そば-十日町市",
        "name": "十日町市",
        "prefecture": "新潟県",
        "description": "へぎそば",
        "lat": 37.1282799,
        "lng": 138.7553633
      },
      {
        "id": "そば-小千谷市",
        "name": "小千谷市",
        "prefecture": "新潟県",
        "description": "へぎそば",
        "lat": 37.3143204,
        "lng": 138.7951216
      },
      {
        "id": "そば-福井市",
        "name": "福井市",
        "prefecture": "福井県",
        "description": "越前おろしそば",
        "lat": 36.0641386,
        "lng": 136.219623
      },
      {
        "id": "そば-南越前町",
        "name": "南越前町",
        "prefecture": "福井県",
        "description": "今庄そば",
        "lat": 35.8331816,
        "lng": 136.1952027
      },
      {
        "id": "そば-長野市（戸隠）",
        "name": "長野市（戸隠）",
        "prefecture": "長野県",
        "description": "戸隠そば",
        "lat": 36.7313098,
        "lng": 138.0763094
      },
      {
        "id": "そば-京都市",
        "name": "京都市",
        "prefecture": "京都府",
        "description": "にしんそば",
        "lat": 35.011564,
        "lng": 135.7681489
      },
      {
        "id": "そば-豊岡市",
        "name": "豊岡市",
        "prefecture": "兵庫県",
        "description": "出石そば",
        "lat": 35.544556,
        "lng": 134.8202406
      },
      {
        "id": "そば-下関市",
        "name": "下関市",
        "prefecture": "山口県",
        "description": "瓦そば",
        "lat": 33.9575296999999,
        "lng": 130.9411759
      },
      {
        "id": "そば-出雲市",
        "name": "出雲市",
        "prefecture": "島根県",
        "description": "出雲そば",
        "lat": 35.3670442,
        "lng": 132.7546943
      },
      {
        "id": "そば-石垣市",
        "name": "石垣市",
        "prefecture": "沖縄県",
        "description": "八重山そば",
        "lat": 24.3378591,
        "lng": 124.1784188
      },
      {
        "id": "そば-宮古島市",
        "name": "宮古島市",
        "prefecture": "沖縄県",
        "description": "宮古そば",
        "lat": 24.7934182,
        "lng": 125.2889743
      },
      {
        "id": "常陸秋そば-常陸太田市",
        "name": "常陸太田市",
        "prefecture": "茨城県",
        "description": "常陸秋そば",
        "lat": 36.5382486,
        "lng": 140.5307574
      },
      {
        "id": "沖縄そば-那覇市",
        "name": "那覇市",
        "prefecture": "沖縄県",
        "description": "沖縄そば",
        "lat": 26.2130411,
        "lng": 127.6785471
      }
    ]
  },
  {
    "id": "冷麺",
    "name": "冷麺",
    "kana": "れいめん",
    "imageQuery": "reimen",
    "regions": [
      {
        "id": "冷麺-盛岡市",
        "name": "盛岡市",
        "prefecture": "岩手県",
        "description": "盛岡冷麺",
        "lat": 39.7019558,
        "lng": 141.1543303
      },
      {
        "id": "冷麺-呉市",
        "name": "呉市",
        "prefecture": "広島県",
        "description": "呉冷麺",
        "lat": 34.2489485,
        "lng": 132.5655271
      },
      {
        "id": "冷麺-別府市",
        "name": "別府市",
        "prefecture": "大分県",
        "description": "別府冷麺",
        "lat": 33.2844614,
        "lng": 131.4907093
      }
    ]
  },
  {
    "id": "じゃじゃ麺",
    "name": "じゃじゃ麺",
    "kana": "じゃじゃめん",
    "imageQuery": "jajamen",
    "regions": [
      {
        "id": "じゃじゃ麺-盛岡市",
        "name": "盛岡市",
        "prefecture": "岩手県",
        "description": "",
        "lat": 39.7019558,
        "lng": 141.1543303
      }
    ]
  },
  {
    "id": "牛料理",
    "name": "牛料理",
    "kana": "うしりょうり",
    "imageQuery": "beef",
    "regions": [
      {
        "id": "牛料理-奥州市",
        "name": "奥州市",
        "prefecture": "岩手県",
        "description": "前沢牛料理",
        "lat": 39.1444106,
        "lng": 141.1392153
      },
      {
        "id": "牛料理-仙台市",
        "name": "仙台市",
        "prefecture": "宮城県",
        "description": "仙台牛料理",
        "lat": 38.268195,
        "lng": 140.869418
      },
      {
        "id": "牛料理-米沢市",
        "name": "米沢市",
        "prefecture": "山形県",
        "description": "米沢牛料理",
        "lat": 37.9223201,
        "lng": 140.1167445
      },
      {
        "id": "牛料理-水戸市",
        "name": "水戸市",
        "prefecture": "茨城県",
        "description": "常陸牛料理",
        "lat": 36.3658764,
        "lng": 140.4713723
      },
      {
        "id": "牛料理-那須塩原市",
        "name": "那須塩原市",
        "prefecture": "栃木県",
        "description": "とちぎ和牛料理",
        "lat": 36.9616857,
        "lng": 140.0460727
      },
      {
        "id": "牛料理-前橋市",
        "name": "前橋市",
        "prefecture": "群馬県",
        "description": "上州牛料理",
        "lat": 36.3894669,
        "lng": 139.0634134
      },
      {
        "id": "牛料理-村上市",
        "name": "村上市",
        "prefecture": "新潟県",
        "description": "村上牛料理",
        "lat": 38.2240045,
        "lng": 139.480171
      },
      {
        "id": "牛料理-甲州市",
        "name": "甲州市",
        "prefecture": "山梨県",
        "description": "ワインビーフ料理",
        "lat": 35.7042915,
        "lng": 138.7294182
      },
      {
        "id": "牛料理-高山市",
        "name": "高山市",
        "prefecture": "岐阜県",
        "description": "飛騨牛料理",
        "lat": 36.1461317,
        "lng": 137.252159
      },
      {
        "id": "牛料理-松阪市",
        "name": "松阪市",
        "prefecture": "三重県",
        "description": "松阪牛料理",
        "lat": 34.5779758,
        "lng": 136.5276154
      },
      {
        "id": "牛料理-近江八幡市",
        "name": "近江八幡市",
        "prefecture": "滋賀県",
        "description": "近江牛料理",
        "lat": 35.1283594,
        "lng": 136.0979635
      },
      {
        "id": "牛料理-神戸市",
        "name": "神戸市",
        "prefecture": "兵庫県",
        "description": "神戸牛料理",
        "lat": 34.6900806,
        "lng": 135.1956311
      },
      {
        "id": "牛料理-小豆島町",
        "name": "小豆島町",
        "prefecture": "香川県",
        "description": "小豆島オリーブ牛料理",
        "lat": 34.4818325,
        "lng": 134.2336123
      },
      {
        "id": "牛料理-本山町",
        "name": "本山町",
        "prefecture": "高知県",
        "description": "土佐あかうし料理",
        "lat": 33.7571057,
        "lng": 133.5913505
      },
      {
        "id": "牛料理-佐賀市",
        "name": "佐賀市",
        "prefecture": "佐賀県",
        "description": "佐賀牛料理",
        "lat": 33.2631179,
        "lng": 130.3009057
      },
      {
        "id": "牛料理-阿蘇市",
        "name": "阿蘇市",
        "prefecture": "熊本県",
        "description": "あか牛料理",
        "lat": 32.9521207,
        "lng": 131.1211959
      },
      {
        "id": "牛料理-石垣市",
        "name": "石垣市",
        "prefecture": "沖縄県",
        "description": "石垣牛料理",
        "lat": 24.3378591,
        "lng": 124.1784188
      }
    ]
  },
  {
    "id": "瓶ドン",
    "name": "瓶ドン",
    "kana": "びんどん",
    "imageQuery": "bindon",
    "regions": [
      {
        "id": "瓶ドン-宮古市",
        "name": "宮古市",
        "prefecture": "岩手県",
        "description": "",
        "lat": 39.6394645,
        "lng": 141.9462611
      }
    ]
  },
  {
    "id": "サンマ",
    "name": "サンマ",
    "kana": "さんま",
    "imageQuery": "sanma",
    "regions": [
      {
        "id": "サンマ-大槌町",
        "name": "大槌町",
        "prefecture": "岩手県",
        "description": "大槌サンマ料理",
        "lat": 39.3583253,
        "lng": 141.9005361
      }
    ]
  },
  {
    "id": "ひっつみ汁",
    "name": "ひっつみ汁",
    "kana": "ひっつみじる",
    "imageQuery": "hittumiziru",
    "regions": [
      {
        "id": "ひっつみ汁-花巻市",
        "name": "花巻市",
        "prefecture": "岩手県",
        "description": "",
        "lat": 39.3886253,
        "lng": 141.1168998
      }
    ]
  },
  {
    "id": "牛タン",
    "name": "牛タン",
    "kana": "ぎゅうたん",
    "imageQuery": "gyutan",
    "regions": [
      {
        "id": "牛タン-仙台市",
        "name": "仙台市",
        "prefecture": "宮城県",
        "description": "",
        "lat": 38.268195,
        "lng": 140.869418
      }
    ]
  },
  {
    "id": "ずんだ餅",
    "name": "ずんだ餅",
    "kana": "ずんだもち",
    "imageQuery": "zundamoti",
    "regions": [
      {
        "id": "ずんだ餅-仙台市",
        "name": "仙台市",
        "prefecture": "宮城県",
        "description": "",
        "lat": 38.268195,
        "lng": 140.869418
      }
    ]
  },
  {
    "id": "はらこ飯",
    "name": "はらこ飯",
    "kana": "はらこめし",
    "imageQuery": "harakomeshi",
    "regions": [
      {
        "id": "はらこ飯-亘理町",
        "name": "亘理町",
        "prefecture": "宮城県",
        "description": "",
        "lat": 38.0378009,
        "lng": 140.8525347
      }
    ]
  },
  {
    "id": "鯖料理",
    "name": "鯖料理",
    "kana": "さばりょうり",
    "imageQuery": "saba",
    "regions": [
      {
        "id": "鯖料理-石巻市",
        "name": "石巻市",
        "prefecture": "宮城県",
        "description": "金華鯖料理",
        "lat": 38.434332,
        "lng": 141.3028682
      },
      {
        "id": "鯖料理-土佐清水市",
        "name": "土佐清水市",
        "prefecture": "高知県",
        "description": "清水鯖料理",
        "lat": 32.7815775,
        "lng": 132.9550004
      }
    ]
  },
  {
    "id": "フカヒレ料理",
    "name": "フカヒレ料理",
    "kana": "ふかひれりょうり",
    "imageQuery": "hukahire",
    "regions": [
      {
        "id": "フカヒレ料理-気仙沼市",
        "name": "気仙沼市",
        "prefecture": "宮城県",
        "description": "気仙沼フカヒレ料理",
        "lat": 38.907641,
        "lng": 141.5703316
      }
    ]
  },
  {
    "id": "カツオ料理",
    "name": "カツオ料理",
    "kana": "かつおりょうり",
    "imageQuery": "katuo",
    "regions": [
      {
        "id": "カツオ料理-気仙沼市",
        "name": "気仙沼市",
        "prefecture": "宮城県",
        "description": "気仙沼カツオ料理",
        "lat": 38.907641,
        "lng": 141.5703316
      },
      {
        "id": "カツオ料理-焼津市",
        "name": "焼津市",
        "prefecture": "静岡県",
        "description": "焼津カツオ料理",
        "lat": 34.8668816,
        "lng": 138.3233812
      },
      {
        "id": "カツオ料理-高知市",
        "name": "高知市",
        "prefecture": "高知県",
        "description": "カツオのたたき",
        "lat": 33.5588821,
        "lng": 133.5312383
      },
      {
        "id": "カツオ料理-土佐清水市",
        "name": "土佐清水市",
        "prefecture": "高知県",
        "description": "カツオのたたき",
        "lat": 32.7815775,
        "lng": 132.9550004
      }
    ]
  },
  {
    "id": "笹かまぼこ",
    "name": "笹かまぼこ",
    "kana": "ささかまぼこ",
    "imageQuery": "sasakamaboko",
    "regions": [
      {
        "id": "笹かまぼこ-仙台市",
        "name": "仙台市",
        "prefecture": "宮城県",
        "description": "",
        "lat": 38.268195,
        "lng": 140.869418
      }
    ]
  },
  {
    "id": "温麺",
    "name": "温麺",
    "kana": "うーめん",
    "imageQuery": "u-men",
    "regions": [
      {
        "id": "温麺-白石市",
        "name": "白石市",
        "prefecture": "宮城県",
        "description": "白石温麺",
        "lat": 38.0022622,
        "lng": 140.6199545
      }
    ]
  },
  {
    "id": "きりたんぽ鍋",
    "name": "きりたんぽ鍋",
    "kana": "きりたんぽなべ",
    "imageQuery": "kiritanpo",
    "regions": [
      {
        "id": "きりたんぽ鍋-大館市",
        "name": "大館市",
        "prefecture": "秋田県",
        "description": "",
        "lat": 40.2714146,
        "lng": 140.5641387
      }
    ]
  },
  {
    "id": "うどん",
    "name": "うどん",
    "kana": "うどん",
    "imageQuery": "udon",
    "regions": [
      {
        "id": "うどん-湯沢市",
        "name": "湯沢市",
        "prefecture": "秋田県",
        "description": "稲庭うどん",
        "lat": 39.1643877,
        "lng": 140.4957009
      },
      {
        "id": "うどん-渋川市（伊香保）",
        "name": "渋川市（伊香保）",
        "prefecture": "群馬県",
        "description": "水沢うどん",
        "lat": 36.4981947,
        "lng": 138.9165884
      },
      {
        "id": "うどん-所沢市",
        "name": "所沢市",
        "prefecture": "埼玉県",
        "description": "武蔵野うどん",
        "lat": 35.799423,
        "lng": 139.4687112
      },
      {
        "id": "うどん-氷見市",
        "name": "氷見市",
        "prefecture": "富山県",
        "description": "氷見うどん",
        "lat": 36.8559412,
        "lng": 136.9728919
      },
      {
        "id": "うどん-富士吉田市",
        "name": "富士吉田市",
        "prefecture": "山梨県",
        "description": "吉田うどん",
        "lat": 35.4879873,
        "lng": 138.8071879
      },
      {
        "id": "うどん-坂城町",
        "name": "坂城町",
        "prefecture": "長野県",
        "description": "おしぼりうどん",
        "lat": 36.4616691,
        "lng": 138.1803458
      },
      {
        "id": "うどん-名古屋市",
        "name": "名古屋市",
        "prefecture": "愛知県",
        "description": "味噌煮込みうどん",
        "lat": 35.1814506,
        "lng": 136.9065571
      },
      {
        "id": "カレーうどん-豊橋市",
        "name": "豊橋市",
        "prefecture": "愛知県",
        "description": "豊橋カレーうどん",
        "lat": 34.7688528,
        "lng": 137.3916837
      },
      {
        "id": "うどん-伊勢市",
        "name": "伊勢市",
        "prefecture": "三重県",
        "description": "伊勢うどん",
        "lat": 34.4874863,
        "lng": 136.7092639
      },
      {
        "id": "うどん-京都市",
        "name": "京都市",
        "prefecture": "京都府",
        "description": "京うどん",
        "lat": 35.011564,
        "lng": 135.7681489
      },
      {
        "id": "うどん-大阪市",
        "name": "大阪市",
        "prefecture": "大阪府",
        "description": "かすうどん",
        "lat": 34.6937249,
        "lng": 135.5022535
      },
      {
        "id": "うどん-みなべ町",
        "name": "みなべ町",
        "prefecture": "和歌山県",
        "description": "梅うどん",
        "lat": 33.7678758,
        "lng": 135.3176872
      },
      {
        "id": "うどん-高松市",
        "name": "高松市",
        "prefecture": "香川県",
        "description": "讃岐うどん",
        "lat": 34.342542,
        "lng": 134.0465405
      },
      {
        "id": "うどん-丸亀市",
        "name": "丸亀市",
        "prefecture": "香川県",
        "description": "讃岐うどん",
        "lat": 34.2893547,
        "lng": 133.797643
      },
      {
        "id": "うどん-観音寺市",
        "name": "観音寺市",
        "prefecture": "香川県",
        "description": "讃岐うどん",
        "lat": 34.1284357,
        "lng": 133.6628477
      },
      {
        "id": "うどん-高松市",
        "name": "高松市",
        "prefecture": "香川県",
        "description": "しっぽくうどん",
        "lat": 34.342542,
        "lng": 134.0465405
      },
      {
        "id": "うどん-長崎市",
        "name": "長崎市",
        "prefecture": "長崎県",
        "description": "皿うどん",
        "lat": 32.7503334,
        "lng": 129.8778888
      },
      {
        "id": "うどん-五島市",
        "name": "五島市",
        "prefecture": "長崎県",
        "description": "五島うどん",
        "lat": 32.695178,
        "lng": 128.8399735
      }
    ]
  },
  {
    "id": "地鶏料理",
    "name": "地鶏料理",
    "kana": "じどりりょうり",
    "imageQuery": "zidori",
    "regions": [
      {
        "id": "比内地鶏料理-大館市",
        "name": "大館市",
        "prefecture": "秋田県",
        "description": "比内地鶏料理",
        "lat": 40.2714146,
        "lng": 140.5641387
      },
       {
        "id": "地鶏炭火焼き-宮崎市",
        "name": "宮崎市",
        "prefecture": "宮崎県",
        "description": "",
        "lat": 31.9077285,
        "lng": 131.4202196
      },
      {
        "id": "地鶏炭火焼き-都城市",
        "name": "都城市",
        "prefecture": "宮崎県",
        "description": "",
        "lat": 31.7195907,
        "lng": 131.061559
      }
    ]
  },
  {
    "id": "ハタハタ料理",
    "name": "ハタハタ料理",
    "kana": "はたはたりょうり",
    "imageQuery": "hatahata",
    "regions": [
      {
        "id": "男鹿ハタハタ料理-男鹿市",
        "name": "男鹿市",
        "prefecture": "秋田県",
        "description": "男鹿ハタハタ料理",
        "lat": 39.8869086,
        "lng": 139.8476079
      }
    ]
  },
  {
    "id": "芋煮",
    "name": "芋煮",
    "kana": "いもに",
    "imageQuery": "imoni",
    "regions": [
      {
        "id": "芋煮-山形市",
        "name": "山形市",
        "prefecture": "山形県",
        "description": "",
        "lat": 38.2459634,
        "lng": 140.3350967
      }
    ]
  },
  
  {
    "id": "どんどん焼き",
    "name": "どんどん焼き",
    "kana": "どんどんやき",
    "imageQuery": "dondon",
    "regions": [
      {
        "id": "どんどん焼き-山形市",
        "name": "山形市",
        "prefecture": "山形県",
        "description": "",
        "lat": 38.2459634,
        "lng": 140.3350967
      }
    ]
  },
  {
    "id": "ワンタンメン",
    "name": "ワンタンメン",
    "kana": "さかたわんたんめん",
    "imageQuery": "wantanmen",
    "regions": [
      {
        "id": "ワンタンメン-酒田市",
        "name": "酒田市",
        "prefecture": "山形県",
        "description": "酒田ワンタンメン",
        "lat": 38.9147809,
        "lng": 139.8366435
      }
    ]
  },
  {
    "id": "コロッケ",
    "name": "コロッケ",
    "kana": "ころっけ",
    "imageQuery": "korokke",
    "regions": [
      {
        "id": "米沢牛コロッケ-米沢市",
        "name": "米沢市",
        "prefecture": "山形県",
        "description": "米沢牛コロッケ（食べ歩き強）",
        "lat": 37.9223201,
        "lng": 140.1167445
      }
    ]
  },
  {
    "id": "玉こんにゃく",
    "name": "玉こんにゃく",
    "kana": "たまこんにゃく",
    "imageQuery": "tamakonnyaku",
    "regions": [
      {
        "id": "玉こんにゃく-山形市",
        "name": "山形市",
        "prefecture": "山形県",
        "description": "",
        "lat": 38.2459634,
        "lng": 140.3350967
      }
    ]
  },
  {
    "id": "鳥中華",
    "name": "鳥中華",
    "kana": "とりちゅうか",
    "imageQuery": "torityuka",
    "regions": [
      {
        "id": "鳥中華-天童市",
        "name": "天童市",
        "prefecture": "山形県",
        "description": "",
        "lat": 38.3625629,
        "lng": 140.3770219
      }
    ]
  },
  {
    "id": "カツ丼",
    "name": "カツ丼",
    "kana": "かつどん",
    "imageQuery": "katudon",
    "regions": [
      {
        "id": "カツ丼-会津若松市",
        "name": "会津若松市",
        "prefecture": "福島県",
        "description": "ソースカツ丼",
        "lat": 37.4899827,
        "lng": 139.9277486
      },
      {
        "id": "カツ丼-新潟市",
        "name": "新潟市",
        "prefecture": "新潟県",
        "description": "タレかつ丼",
        "lat": 37.9185345,
        "lng": 139.069444
      },
      {
        "id": "カツ丼-福井市",
        "name": "福井市",
        "prefecture": "福井県",
        "description": "ソースカツ丼",
        "lat": 36.0641386,
        "lng": 136.219623
      },
      {
        "id": "カツ丼-岡山市",
        "name": "岡山市",
        "prefecture": "岡山県",
        "description": "デミカツ丼",
        "lat": 34.656228,
        "lng": 133.9194179
      }
    ]
  },
  {
    "id": "餃子",
    "name": "餃子",
    "kana": "ぎょうざ",
    "imageQuery": "gyouza",
    "regions": [
      {
        "id": "餃子-福島市",
        "name": "福島市",
        "prefecture": "福島県",
        "description": "円盤餃子",
        "lat": 37.7607991,
        "lng": 140.4747856
      },
      {
        "id": "餃子-宇都宮市",
        "name": "宇都宮市",
        "prefecture": "栃木県",
        "description": "宇都宮餃子",
        "lat": 36.5550745,
        "lng": 139.8826209
      },
      {
        "id": "餃子-浜松市",
        "name": "浜松市",
        "prefecture": "静岡県",
        "description": "浜松餃子",
        "lat": 34.7102752,
        "lng": 137.7274159
      },
      {
        "id": "餃子-津市",
        "name": "津市",
        "prefecture": "三重県",
        "description": "津ぎょうざ",
        "lat": 34.7186389,
        "lng": 136.5052256
      },
      {
        "id": "餃子-北九州市",
        "name": "北九州市",
        "prefecture": "福岡県",
        "description": "鉄なべ餃子",
        "lat": 33.8834976,
        "lng": 130.8751773
      }
    ]
  },
  {
    "id": "こづゆ",
    "name": "こづゆ",
    "kana": "こづゆ",
    "imageQuery": "koduyu",
    "regions": [
      {
        "id": "会津こづゆ-会津若松市",
        "name": "会津若松市",
        "prefecture": "福島県",
        "description": "会津こづゆ",
        "lat": 37.4899827,
        "lng": 139.9277486
      }
    ]
  },
  {
    "id": "いかにんじん",
    "name": "いかにんじん",
    "kana": "いかにんじん",
    "imageQuery": "ikaninzin",
    "regions": [
      {
        "id": "いかにんじん-福島市",
        "name": "福島市",
        "prefecture": "福島県",
        "description": "",
        "lat": 37.7607991,
        "lng": 140.4747856
      }
    ]
  },
  {
    "id": "馬刺し",
    "name": "馬刺し",
    "kana": "ばさし",
    "imageQuery": "会津馬刺し",
    "regions": [
      {
        "id": "会津馬刺し-会津若松市",
        "name": "会津若松市",
        "prefecture": "福島県",
        "description": "会津馬刺し",
        "lat": 37.4899827,
        "lng": 139.9277486
      },
      {
        "id": "馬刺し-熊本市",
        "name": "熊本市",
        "prefecture": "熊本県",
        "description": "",
        "lat": 32.8032164,
        "lng": 130.7079369
      }
    ]
  },
  {
    "id": "あんこう鍋",
    "name": "あんこう鍋",
    "kana": "あんこうなべ",
    "imageQuery": "ankounabe",
    "regions": [
      {
        "id": "あんこう鍋-北茨城市",
        "name": "北茨城市",
        "prefecture": "茨城県",
        "description": "",
        "lat": 36.801915,
        "lng": 140.7510448
      },
      {
        "id": "あんこう鍋-大洗町",
        "name": "大洗町",
        "prefecture": "茨城県",
        "description": "",
        "lat": 36.3133985,
        "lng": 140.5748789
      }
    ]
  },
  {
    "id": "納豆料理",
    "name": "納豆料理",
    "kana": "なっとうりょうり",
    "imageQuery": "nattou",
    "regions": [
      {
        "id": "納豆料理-水戸市",
        "name": "水戸市",
        "prefecture": "茨城県",
        "description": "",
        "lat": 36.3658764,
        "lng": 140.4713723
      }
    ]
  },
  {
    "id": "しらす丼",
    "name": "しらす丼",
    "kana": "しらすどん",
    "imageQuery": "sirasudon",
    "regions": [
      {
        "id": "しらす丼-大洗町",
        "name": "大洗町",
        "prefecture": "茨城県",
        "description": "",
        "lat": 36.3133985,
        "lng": 140.5748789
      },
      {
        "id": "しらす丼-藤沢市（江の島）",
        "name": "藤沢市（江の島）",
        "prefecture": "神奈川県",
        "description": "",
        "lat": 35.2990992,
        "lng": 139.4809269
      },
      {
        "id": "しらす丼-藤沢市",
        "name": "藤沢市",
        "prefecture": "神奈川県",
        "description": "湘南しらす丼",
        "lat": 35.3391654,
        "lng": 139.49014
      },
      {
        "id": "しらす丼-鎌倉市",
        "name": "鎌倉市",
        "prefecture": "神奈川県",
        "description": "鎌倉しらす丼",
        "lat": 35.3192128,
        "lng": 139.5466731
      },
      {
        "id": "しらす丼-静岡市",
        "name": "静岡市",
        "prefecture": "静岡県",
        "description": "生しらす丼",
        "lat": 34.9755668,
        "lng": 138.3826773
      },
      {
        "id": "しらす丼-和歌山市（加太）",
        "name": "和歌山市（加太）",
        "prefecture": "和歌山県",
        "description": "",
        "lat": 34.2748394,
        "lng": 135.0798131
      }
    ]
  },
  {
    "id": "はまぐり料理",
    "name": "はまぐり料理",
    "kana": "はまぐりりょうり",
    "imageQuery": "hamaguri",
    "regions": [
      {
        "id": "はまぐり料理-鹿嶋市",
        "name": "鹿嶋市",
        "prefecture": "茨城県",
        "description": "鹿島灘はまぐり料理",
        "lat": 35.9656835,
        "lng": 140.6447937
      },
      {
        "id": "はまぐり料理-九十九里町",
        "name": "九十九里町",
        "prefecture": "千葉県",
        "description": "九十九里はまぐり料理",
        "lat": 35.5348912,
        "lng": 140.4396558
      }
    ]
  },
  {
    "id": "しらすピザ",
    "name": "しらすピザ",
    "kana": "しらすぴざ",
    "imageQuery": "しらすピザ",
    "regions": [
      {
        "id": "しらすピザ-大洗町",
        "name": "大洗町",
        "prefecture": "茨城県",
        "description": "",
        "lat": 36.3133985,
        "lng": 140.5748789
      },
      {
        "id": "鎌倉しらすピザ-鎌倉市",
        "name": "鎌倉市",
        "prefecture": "神奈川県",
        "description": "鎌倉しらすピザ",
        "lat": 35.3192128,
        "lng": 139.5466731
      }
    ]
  },
  {
    "id": "しゃも料理",
    "name": "しゃも料理",
    "kana": "しゃもりょうり",
    "imageQuery": "shamo",
    "regions": [
      {
        "id": "しゃも料理-大子町",
        "name": "大子町",
        "prefecture": "茨城県",
        "description": "奥久慈しゃも料理",
        "lat": 36.7680855,
        "lng": 140.3552161
      }
    ]
  },
  {
    "id": "レモン牛乳",
    "name": "レモン牛乳",
    "kana": "れもんぎゅうにゅう",
    "imageQuery": "remongyunyu",
    "regions": [
      {
        "id": "レモン牛乳-宇都宮市",
        "name": "宇都宮市",
        "prefecture": "栃木県",
        "description": "",
        "lat": 36.5550745,
        "lng": 139.8826209
      }
    ]
  },
  {
    "id": "ステーキ",
    "name": "ステーキ",
    "kana": "すてーき",
    "imageQuery": "sute-ki",
    "regions": [
      {
        "id": "那須高原ステーキ-那須町",
        "name": "那須町",
        "prefecture": "栃木県",
        "description": "那須高原ステーキ",
        "lat": 37.0197825,
        "lng": 140.1209869
      }
    ]
  },
  {
    "id": "チーズ料理",
    "name": "チーズ料理",
    "kana": "ちーずりょうり",
    "imageQuery": "ti-zu",
    "regions": [
      {
        "id": "チーズ料理-那須町",
        "name": "那須町",
        "prefecture": "栃木県",
        "description": "那須高原チーズ料理",
        "lat": 37.0197825,
        "lng": 140.1209869
      }
    ]
  },
  {
    "id": "湯葉料理",
    "name": "湯葉料理",
    "kana": "ゆばりょうり",
    "imageQuery": "yuba",
    "regions": [
      {
        "id": "日光湯葉料理-日光市",
        "name": "日光市",
        "prefecture": "栃木県",
        "description": "日光ゆば料理",
        "lat": 36.7198987,
        "lng": 139.6982361
      },
      {
        "id": "箱根湯葉料理-箱根町",
        "name": "箱根町",
        "prefecture": "神奈川県",
        "description": "箱根湯葉料理",
        "lat": 35.2337691,
        "lng": 139.1088454
      }
    ]
  },
  {
    "id": "焼きまんじゅう",
    "name": "焼きまんじゅう",
    "kana": "やきまんじゅう",
    "imageQuery": "yakimanju",
    "regions": [
      {
        "id": "焼きまんじゅう-前橋市",
        "name": "前橋市",
        "prefecture": "群馬県",
        "description": "",
        "lat": 36.3894669,
        "lng": 139.0634134
      }
    ]
  },
  {
    "id": "パスタ",
    "name": "パスタ",
    "kana": "ぱすた",
    "imageQuery": "pasuta",
    "regions": [
      {
        "id": "高崎パスタ-高崎市",
        "name": "高崎市",
        "prefecture": "群馬県",
        "description": "高崎パスタ",
        "lat": 36.3220692,
        "lng": 139.0033576
      },
      {
        "id": "横浜ナポリタン-横浜市",
        "name": "横浜市",
        "prefecture": "神奈川県",
        "description": "",
        "lat": 35.4436739,
        "lng": 139.6379639
      }
    ]
  },
  {
    "id": "温泉湯もみ料理系",
    "name": "温泉湯もみ料理系",
    "kana": "おんせんゆもみりょうりけい",
    "imageQuery": "yumomi",
    "regions": [
      {
        "id": "草津温泉湯もみ料理系-草津町",
        "name": "草津町",
        "prefecture": "群馬県",
        "description": "草津温泉湯もみ料理系",
        "lat": 36.6207181,
        "lng": 138.5960945
      }
    ]
  },
  {
    "id": "もつ煮",
    "name": "もつ煮",
    "kana": "もつに",
    "imageQuery": "motuni",
    "regions": [
      {
        "id": "上州もつ煮-渋川市（伊香保）",
        "name": "渋川市（伊香保）",
        "prefecture": "群馬県",
        "description": "上州もつ煮",
        "lat": 36.4981947,
        "lng": 138.9165884
      }
    ]
  },
  {
    "id": "焼きうどん",
    "name": "焼きうどん",
    "kana": "やきうどん",
    "imageQuery": "yakiudon",
    "regions": [
      {
        "id": "焼きうどん-太田市",
        "name": "太田市",
        "prefecture": "群馬県",
        "description": "",
        "lat": 36.2909373,
        "lng": 139.3760432
      },
      {
        "id": "焼きうどん-北九州市（小倉北区）",
        "name": "北九州市（小倉北区）",
        "prefecture": "福岡県",
        "description": "",
        "lat": 33.8775082,
        "lng": 130.8878658
      },
      {
        "id": "ホルモンうどん-津山市",
        "name": "津山市",
        "prefecture": "岡山県",
        "description": "ホルモンうどん",
        "lat": 35.0691643,
        "lng": 134.0045802
      }
    ]
  },
  {
    "id": "ゼリーフライ",
    "name": "ゼリーフライ",
    "kana": "ぜりーふらい",
    "imageQuery": "zeri-hurai",
    "regions": [
      {
        "id": "ゼリーフライ-行田市",
        "name": "行田市",
        "prefecture": "埼玉県",
        "description": "",
        "lat": 36.13905,
        "lng": 139.4559326
      }
    ]
  },
  {
    "id": "味噌ポテト",
    "name": "味噌ポテト",
    "kana": "みそぽてと",
    "imageQuery": "misopoteto",
    "regions": [
      {
        "id": "味噌ポテト-秩父市",
        "name": "秩父市",
        "prefecture": "埼玉県",
        "description": "",
        "lat": 35.9916443,
        "lng": 139.0855869
      }
    ]
  },
  {
    "id": "豚みそ丼",
    "name": "豚みそ丼",
    "kana": "ぶたみそどん",
    "imageQuery": "butamiso",
    "regions": [
      {
        "id": "豚みそ丼-秩父市",
        "name": "秩父市",
        "prefecture": "埼玉県",
        "description": "",
        "lat": 35.9916443,
        "lng": 139.0855869
      }
    ]
  },
  {
    "id": "フライ",
    "name": "フライ",
    "kana": "ふらい",
    "imageQuery": "gyoudahurai",
    "regions": [
      {
        "id": "行田フライ-行田市",
        "name": "行田市",
        "prefecture": "埼玉県",
        "description": "行田フライ",
        "lat": 36.13905,
        "lng": 139.4559326
      }
    ]
  },
  {
    "id": "せんべい",
    "name": "せんべい",
    "kana": "せんべい",
    "imageQuery": "kusakasenbei",
    "regions": [
      {
        "id": "草加せんべい-草加市",
        "name": "草加市",
        "prefecture": "埼玉県",
        "description": "草加せんべい",
        "lat": 35.8254078,
        "lng": 139.805378
      }
    ]
  },
 
  {
    "id": "担々麺",
    "name": "担々麵",
    "kana": "かつうらたんたんめん",
    "imageQuery": "tantanmen",
    "regions": [
      {
        "id": "勝浦担々麵-勝浦市",
        "name": "勝浦市",
        "prefecture": "千葉県",
        "description": "勝浦担々麵",
        "lat": 35.1522272,
        "lng": 140.3208833
      },
      {
        "id": "汁なし担々麺-広島市",
        "name": "広島市",
        "prefecture": "広島県",
        "description": "汁なし担々麺",
        "lat": 34.3852894,
        "lng": 132.4553055
      }
    ]
  },
  {
    "id": "なめろう",
    "name": "なめろう",
    "kana": "なめろう",
    "imageQuery": "namerou",
    "regions": [
      {
        "id": "なめろう-館山市",
        "name": "館山市",
        "prefecture": "千葉県",
        "description": "",
        "lat": 34.9965461,
        "lng": 139.870044
      }
    ]
  },
  {
    "id": "さんが焼き",
    "name": "さんが焼き",
    "kana": "さんがやき",
    "imageQuery": "sangayaki",
    "regions": [
      {
        "id": "さんが焼き-南房総市",
        "name": "南房総市",
        "prefecture": "千葉県",
        "description": "",
        "lat": 35.042651,
        "lng": 139.839879
      }
    ]
  },
  {
    "id": "伊勢海老料理",
    "name": "伊勢海老料理",
    "kana": "いせえびりょうり",
    "imageQuery": "iseebi",
    "regions": [
      {
        "id": "伊勢海老料理-南房総市",
        "name": "南房総市",
        "prefecture": "千葉県",
        "description": "",
        "lat": 35.042651,
        "lng": 139.839879
      },
      {
        "id": "伊勢海老料理-志摩市",
        "name": "志摩市",
        "prefecture": "三重県",
        "description": "",
        "lat": 34.3281783,
        "lng": 136.8296341
      }
    ]
  },
  {
    "id": "金目鯛料理",
    "name": "金目鯛料理",
    "kana": "きんめだいりょうり",
    "imageQuery": "kinmedai",
    "regions": [
      {
        "id": "金目鯛料理-鴨川市",
        "name": "鴨川市",
        "prefecture": "千葉県",
        "description": "",
        "lat": 35.1133206,
        "lng": 140.0990322
      },
      {
        "id": "金目鯛料理-下田市",
        "name": "下田市",
        "prefecture": "静岡県",
        "description": "",
        "lat": 34.6796171,
        "lng": 138.9451459
      }
    ]
  },
  {
    "id": "つりきんめ丼",
    "name": "つりきんめ丼",
    "kana": "つりきんめどん",
    "imageQuery": "turikinme",
    "regions": [
      {
        "id": "銚子つりきんめ丼-銚子市",
        "name": "銚子市",
        "prefecture": "千葉県",
        "description": "銚子つりきんめ丼",
        "lat": 35.7340035,
        "lng": 140.8267464
      }
    ]
  },
  {
    "id": "アジフライ",
    "name": "アジフライ",
    "kana": "あじふらい",
    "imageQuery": "azihurai",
    "regions": [
      {
        "id": "房総アジフライ-館山市",
        "name": "館山市",
        "prefecture": "千葉県",
        "description": "房総アジフライ",
        "lat": 34.9965461,
        "lng": 139.870044
      },
      {
        "id": "アジフライ-沼津市",
        "name": "沼津市",
        "prefecture": "静岡県",
        "description": "沼津アジフライ",
        "lat": 35.0956068,
        "lng": 138.8635399
      }
    ]
  },
  {
    "id": "もんじゃ焼き",
    "name": "もんじゃ焼き",
    "kana": "もんじゃやき",
    "imageQuery": "monja",
    "regions": [
      {
        "id": "もんじゃ焼き-中央区（月島）",
        "name": "中央区（月島）",
        "prefecture": "東京都",
        "description": "",
        "lat": 35.6635905,
        "lng": 139.7818227
      }
    ]
  },
  {
    "id": "深川めし",
    "name": "深川めし",
    "kana": "ふかがわめし",
    "imageQuery": "hukagawameshi",
    "regions": [
      {
        "id": "深川めし-江東区（深川）",
        "name": "江東区（深川）",
        "prefecture": "東京都",
        "description": "",
        "lat": 35.6763054,
        "lng": 139.7978028
      }
    ]
  },
  {
    "id": "天ぷら",
    "name": "天ぷら",
    "kana": "てんぷら",
    "imageQuery": "tenpura",
    "regions": [
      {
        "id": "天ぷら-台東区（浅草）",
        "name": "台東区（浅草）",
        "prefecture": "東京都",
        "description": "",
        "lat": 35.7185858,
        "lng": 139.7958849
      },
      {
        "id": "沖縄天ぷら-那覇市",
        "name": "那覇市",
        "prefecture": "沖縄県",
        "description": "沖縄天ぷら",
        "lat": 26.2130411,
        "lng": 127.6785471
      }
    ]
  },
  {
    "id": "あさり料理",
    "name": "あさり料理",
    "kana": "あさりりょうり",
    "imageQuery": "asari",
    "regions": [
      {
        "id": "あさり料理-江東区",
        "name": "江東区",
        "prefecture": "東京都",
        "description": "深川あさり料理",
        "lat": 35.6727748,
        "lng": 139.8174521
      }
    ]
  },
  {
    "id": "天丼",
    "name": "天丼",
    "kana": "てんどん",
    "imageQuery": "tendon",
    "regions": [
      {
        "id": "下町天丼-台東区（浅草）",
        "name": "台東区（浅草）",
        "prefecture": "東京都",
        "description": "下町天丼",
        "lat": 35.7185858,
        "lng": 139.7958849
      }
    ]
  },
  
  
  
  {
    "id": "のっぺ",
    "name": "のっぺ",
    "kana": "のっぺ",
    "imageQuery": "noppe",
    "regions": [
      {
        "id": "のっぺ-新潟市",
        "name": "新潟市",
        "prefecture": "新潟県",
        "description": "",
        "lat": 37.9185345,
        "lng": 139.069444
      }
    ]
  },
  {
    "id": "南蛮エビ丼",
    "name": "南蛮エビ丼",
    "kana": "なんばんえびどん",
    "imageQuery": "nanbanebidon",
    "regions": [
      {
        "id": "南蛮エビ丼-新潟市",
        "name": "新潟市",
        "prefecture": "新潟県",
        "description": "",
        "lat": 37.9185345,
        "lng": 139.069444
      }
    ]
  },
  {
    "id": "白えび丼",
    "name": "白えび丼",
    "kana": "しろえびどん",
    "imageQuery": "siroebi",
    "regions": [
      {
        "id": "白えび丼-富山市",
        "name": "富山市",
        "prefecture": "富山県",
        "description": "",
        "lat": 36.6958223,
        "lng": 137.2137211
      }
    ]
  },
  
  {
    "id": "ブリ料理",
    "name": "ブリ料理",
    "kana": "ぶりりょうり",
    "imageQuery": "kanburi",
    "regions": [
      {
        "id": "寒ブリ料理-氷見市",
        "name": "氷見市",
        "prefecture": "富山県",
        "description": "氷見寒ブリ料理",
        "lat": 36.8559412,
        "lng": 136.9728919
      },
      {
        "id": "ブリ料理-尾鷲市",
        "name": "尾鷲市",
        "prefecture": "三重県",
        "description": "尾鷲ブリ料理",
        "lat": 34.0707921,
        "lng": 136.1909177
      }
    ]
  },
  {
    "id": "カニ",
    "name": "カニ",
    "kana": "かに",
    "imageQuery": "kani",
    "regions": [
      {
        "id": "カニ料理-射水市",
        "name": "射水市",
        "prefecture": "富山県",
        "description": "射水ベニズワイガニ",
        "lat": 36.7306389,
        "lng": 137.0755452
      },
      {
        "id": "カニ料理-金沢市",
        "name": "金沢市",
        "prefecture": "石川県",
        "description": "かに面",
        "lat": 36.5597341,
        "lng": 136.6520376
      },
      {
        "id": "カニ料理-越前町",
        "name": "越前町",
        "prefecture": "福井県",
        "description": "越前ガニ",
        "lat": 35.9735806,
        "lng": 136.1312544
      },
      {
        "id": "カニ料理-豊岡市（城崎）",
        "name": "豊岡市（城崎）",
        "prefecture": "兵庫県",
        "description": "",
        "lat": 35.6241637,
        "lng": 134.8131005
      },
      {
        "id": "カニ料理-新温泉町（浜坂）",
        "name": "新温泉町（浜坂）",
        "prefecture": "兵庫県",
        "description": "",
        "lat": 35.6232664,
        "lng": 134.4546213
      },
      {
        "id": "カニ料理-香美町",
        "name": "香美町",
        "prefecture": "兵庫県",
        "description": "香住ガニ",
        "lat": 35.6377104,
        "lng": 134.6272339
      },
      {
        "id": "カニ料理-境港市",
        "name": "境港市",
        "prefecture": "鳥取県",
        "description": "",
        "lat": 35.5396534,
        "lng": 133.2316204
      },
      {
        "id": "カニ料理-鳥取市",
        "name": "鳥取市",
        "prefecture": "鳥取県",
        "description": "",
        "lat": 35.5011082,
        "lng": 134.2351011
      },
      {
        "id": "カニ料理-太良町",
        "name": "太良町",
        "prefecture": "佐賀県",
        "description": "竹崎かに",
        "lat": 33.0193939,
        "lng": 130.179138
      },
      {
        "id": "カニ-網走市",
        "name": "網走市",
        "prefecture": "北海道",
        "description": "",
        "lat": 44.0206059,
        "lng": 144.2734837
      },
      {
        "id": "カニ-稚内市",
        "name": "稚内市",
        "prefecture": "北海道",
        "description": "",
        "lat": 45.4156307,
        "lng": 141.6733641
      },
      {
        "id": "カニ-根室市",
        "name": "根室市",
        "prefecture": "北海道",
        "description": "根室花咲ガニ",
        "lat": 43.3301005,
        "lng": 145.5828182
      }
    ]
  },
  {
    "id": "おでん",
    "name": "おでん",
    "kana": "おでん",
    "imageQuery": "oden",
    "regions": [
      {
        "id": "おでん-富山市",
        "name": "富山市",
        "prefecture": "富山県",
        "description": "富山おでん",
        "lat": 36.6958223,
        "lng": 137.2137211
      },
      {
        "id": "おでん-金沢市",
        "name": "金沢市",
        "prefecture": "石川県",
        "description": "金沢おでん",
        "lat": 36.5597341,
        "lng": 136.6520376
      },
      {
        "id": "おでん-松本市",
        "name": "松本市",
        "prefecture": "長野県",
        "description": "信州味噌おでん",
        "lat": 36.2380434,
        "lng": 137.9719897
      },
      {
        "id": "おでん-静岡市",
        "name": "静岡市",
        "prefecture": "静岡県",
        "description": "静岡おでん",
        "lat": 34.9755668,
        "lng": 138.3826773
      },
      {
        "id": "おでん-姫路市",
        "name": "姫路市",
        "prefecture": "兵庫県",
        "description": "姫路おでん",
        "lat": 34.8154176,
        "lng": 134.6855509
      }
    ]
  },
  {
    "id": "のどぐろ料理",
    "name": "のどぐろ料理",
    "kana": "のどぐろりょうり",
    "imageQuery": "nodoguro",
    "regions": [
      {
        "id": "のどぐろ料理-金沢市",
        "name": "金沢市",
        "prefecture": "石川県",
        "description": "",
        "lat": 36.5597341,
        "lng": 136.6520376
      }
    ]
  },
  {
    "id": "治部煮",
    "name": "治部煮",
    "kana": "じぶに",
    "imageQuery": "zibuni",
    "regions": [
      {
        "id": "治部煮-金沢市",
        "name": "金沢市",
        "prefecture": "石川県",
        "description": "",
        "lat": 36.5597341,
        "lng": 136.6520376
      }
    ]
  },
  {
    "id": "ふぐ料理",
    "name": "ふぐ料理",
    "kana": "ふぐりょうり",
    "imageQuery": "hugu",
    "regions": [
      {
        "id": "ふぐ料理-輪島市",
        "name": "輪島市",
        "prefecture": "石川県",
        "description": "輪島ふぐ料理",
        "lat": 37.3910935,
        "lng": 136.9025211
      },
      {
        "id": "ふぐ料理-小浜市",
        "name": "小浜市",
        "prefecture": "福井県",
        "description": "若狭ふぐ料理",
        "lat": 35.4956278,
        "lng": 135.7467206
      },
      {
        "id": "ふぐ料理-下関市",
        "name": "下関市",
        "prefecture": "山口県",
        "description": "",
        "lat": 33.9575296999999,
        "lng": 130.9411759
      }
    ]
  },
  {
    "id": "加賀料理",
    "name": "加賀料理",
    "kana": "かがりょうり",
    "imageQuery": "kaga",
    "regions": [
      {
        "id": "加賀料理-加賀市（山代温泉）",
        "name": "加賀市（山代温泉）",
        "prefecture": "石川県",
        "description": "",
        "lat": 36.2903387,
        "lng": 136.3621086
      }
    ]
  },
  
  {
    "id": "ほうとう",
    "name": "ほうとう",
    "kana": "ほうとう",
    "imageQuery": "houtou",
    "regions": [
      {
        "id": "ほうとう-甲府市",
        "name": "甲府市",
        "prefecture": "山梨県",
        "description": "",
        "lat": 35.662133,
        "lng": 138.5683001
      },
      {
        "id": "ほうとう-富士河口湖町",
        "name": "富士河口湖町",
        "prefecture": "山梨県",
        "description": "甲州ほうとう",
        "lat": 35.4973138,
        "lng": 138.7551994
      }
    ]
  },
  {
    "id": "鳥もつ煮",
    "name": "鳥もつ煮",
    "kana": "とりもつに",
    "imageQuery": "torimotuni",
    "regions": [
      {
        "id": "鳥もつ煮-甲府市",
        "name": "甲府市",
        "prefecture": "山梨県",
        "description": "",
        "lat": 35.662133,
        "lng": 138.5683001
      }
    ]
  },
  {
    "id": "山賊焼き",
    "name": "山賊焼き",
    "kana": "さんぞくやき",
    "imageQuery": "sanzoku",
    "regions": [
      {
        "id": "山賊焼き-松本市",
        "name": "松本市",
        "prefecture": "長野県",
        "description": "",
        "lat": 36.2380434,
        "lng": 137.9719897
      }
    ]
  },
  {
    "id": "おやき",
    "name": "おやき",
    "kana": "おやき",
    "imageQuery": "oyaki",
    "regions": [
      {
        "id": "おやき-長野市",
        "name": "長野市",
        "prefecture": "長野県",
        "description": "",
        "lat": 36.6485258,
        "lng": 138.1950371
      }
    ]
  },
  {
    "id": "サーモン料理",
    "name": "サーモン料理",
    "kana": "さーもんりょうり",
    "imageQuery": "sa-mon",
    "regions": [
      {
        "id": "サーモン料理-松本市",
        "name": "松本市",
        "prefecture": "長野県",
        "description": "信州サーモン料理",
        "lat": 36.2380434,
        "lng": 137.9719897
      }
    ]
  },
  {
    "id": "野沢菜料理",
    "name": "野沢菜料理",
    "kana": "のざわなりょうり",
    "imageQuery": "nozawana",
    "regions": [
      {
        "id": "野沢菜料理-長野市",
        "name": "長野市",
        "prefecture": "長野県",
        "description": "",
        "lat": 36.6485258,
        "lng": 138.1950371
      }
    ]
  },
  {
    "id": "野沢温泉菜料理",
    "name": "野沢温泉菜料理",
    "kana": "のざわおんせんなりょうり",
    "imageQuery": "nozawanaonsen",
    "regions": [
      {
        "id": "野沢温泉菜料理-野沢温泉村",
        "name": "野沢温泉村",
        "prefecture": "長野県",
        "description": "",
        "lat": 36.9228462,
        "lng": 138.4405097
      }
    ]
  },
  {
    "id": "鶏ちゃん",
    "name": "鶏ちゃん",
    "kana": "にわとりちゃん",
    "imageQuery": "keityan",
    "regions": [
      {
        "id": "鶏ちゃん-下呂市",
        "name": "下呂市",
        "prefecture": "岐阜県",
        "description": "",
        "lat": 35.8059163,
        "lng": 137.2441224
      },
      {
        "id": "鶏ちゃん焼き-郡上市",
        "name": "郡上市",
        "prefecture": "岐阜県",
        "description": "鶏ちゃん焼き",
        "lat": 35.7484949,
        "lng": 136.9643157
      }
    ]
  },
  {
    "id": "朴葉味噌",
    "name": "朴葉味噌",
    "kana": "ぼくようみそ",
    "imageQuery": "bokuyoumiso",
    "regions": [
      {
        "id": "朴葉味噌-高山市",
        "name": "高山市",
        "prefecture": "岐阜県",
        "description": "",
        "lat": 36.1461317,
        "lng": 137.252159
      },
      {
        "id": "朴葉味噌-高山市（奥飛騨）",
        "name": "高山市（奥飛騨）",
        "prefecture": "岐阜県",
        "description": "奥飛騨温泉郷朴葉味噌",
        "lat": 36.1461317,
        "lng": 137.252159
      }
    ]
  },
  
  {
    "id": "うなぎ料理",
    "name": "うなぎ料理",
    "kana": "うなぎりょうり",
    "imageQuery": "unagi",
    "regions": [
      {
        "id": "うなぎ料理-浜松市",
        "name": "浜松市",
        "prefecture": "静岡県",
        "description": "",
        "lat": 34.7102752,
        "lng": 137.7274159
      },
      {
        "id": "うなぎ料理-志布志市",
        "name": "志布志市",
        "prefecture": "鹿児島県",
        "description": "志布志うなぎ料理",
        "lat": 31.4955583,
        "lng": 131.0454228
      },
      {
        "id": "川越うなぎ-川越市",
        "name": "川越市",
        "prefecture": "埼玉県",
        "description": "川越うなぎ",
        "lat": 35.9251335,
        "lng": 139.4858042
      },
      {
        "id": "四万十うなぎ-四万十市",
        "name": "四万十市",
        "prefecture": "高知県",
        "description": "四万十うなぎ",
        "lat": 32.9913865,
        "lng": 132.9337854
      }
    ]
  },
  {
    "id": "桜えび料理",
    "name": "桜えび料理",
    "kana": "さくらえびりょうり",
    "imageQuery": "sakuraebi",
    "regions": [
      {
        "id": "桜えび料理-静岡市（由比）",
        "name": "静岡市（由比）",
        "prefecture": "静岡県",
        "description": "",
        "lat": 35.1116319,
        "lng": 138.5662571
      }
    ]
  },
  
  {
    "id": "げんこつハンバーグ",
    "name": "げんこつハンバーグ",
    "kana": "げんこつはんばーぐ",
    "imageQuery": "hanba-gu",
    "regions": [
      {
        "id": "げんこつハンバーグ-静岡県内広域",
        "name": "静岡県内広域",
        "prefecture": "静岡県",
        "description": "浜松さわやか系（げんこつハンバーグ）",
        "lat": 35.0929397,
        "lng": 138.3190276
      }
    ]
  },
  {
    "id": "ひつまぶし",
    "name": "ひつまぶし",
    "kana": "ひつまぶし",
    "imageQuery": "hitumabusi",
    "regions": [
      {
        "id": "ひつまぶし-名古屋市",
        "name": "名古屋市",
        "prefecture": "愛知県",
        "description": "",
        "lat": 35.1814506,
        "lng": 136.9065571
      }
    ]
  },
  {
    "id": "味噌カツ",
    "name": "味噌カツ",
    "kana": "みそかつ",
    "imageQuery": "misokatu",
    "regions": [
      {
        "id": "味噌カツ-名古屋市",
        "name": "名古屋市",
        "prefecture": "愛知県",
        "description": "",
        "lat": 35.1814506,
        "lng": 136.9065571
      }
    ]
  },
  {
    "id": "手羽先",
    "name": "手羽先",
    "kana": "てばさき",
    "imageQuery": "tebasaki",
    "regions": [
      {
        "id": "手羽先-名古屋市",
        "name": "名古屋市",
        "prefecture": "愛知県",
        "description": "",
        "lat": 35.1814506,
        "lng": 136.9065571
      }
    ]
  },
  {
    "id": "きしめん",
    "name": "きしめん",
    "kana": "きしめん",
    "imageQuery": "kisimen",
    "regions": [
      {
        "id": "きしめん-名古屋市",
        "name": "名古屋市",
        "prefecture": "愛知県",
        "description": "",
        "lat": 35.1814506,
        "lng": 136.9065571
      }
    ]
  },
  {
    "id": "あんかけスパ",
    "name": "あんかけスパ",
    "kana": "あんかけすぱ",
    "imageQuery": "ankakesupa",
    "regions": [
      {
        "id": "あんかけスパ-名古屋市",
        "name": "名古屋市",
        "prefecture": "愛知県",
        "description": "",
        "lat": 35.1814506,
        "lng": 136.9065571
      }
    ]
  },
  
  
  
  {
    "id": "鮒ずし",
    "name": "鮒ずし",
    "kana": "ふなずし",
    "imageQuery": "hunazusi",
    "regions": [
      {
        "id": "鮒ずし-高島市",
        "name": "高島市",
        "prefecture": "滋賀県",
        "description": "",
        "lat": 35.3530069,
        "lng": 136.0357401
      }
    ]
  },
  {
    "id": "ちゃんぽん",
    "name": "ちゃんぽん",
    "kana": "ちゃんぽん",
    "imageQuery": "oumityanpon",
    "regions": [
      {
        "id": "近江ちゃんぽん-彦根市",
        "name": "彦根市",
        "prefecture": "滋賀県",
        "description": "近江ちゃんぽん",
        "lat": 35.2743905,
        "lng": 136.2596827
      },
      {
        "id": "長崎ちゃんぽん-長崎市",
        "name": "長崎市",
        "prefecture": "長崎県",
        "description": "長崎ちゃんぽん",
        "lat": 32.7503334,
        "lng": 129.8778888
      }
    ]
  },
  {
    "id": "近江牛すき焼き",
    "name": "近江牛すき焼き",
    "kana": "おうみぎゅうすきやき",
    "imageQuery": "sukiyaki",
    "regions": [
      {
        "id": "近江牛すき焼き-彦根市",
        "name": "彦根市",
        "prefecture": "滋賀県",
        "description": "",
        "lat": 35.2743905,
        "lng": 136.2596827
      }
    ]
  },
  {
    "id": "焼き鯖そうめん",
    "name": "焼き鯖そうめん",
    "kana": "やきさばそうめん",
    "imageQuery": "sabasoumen",
    "regions": [
      {
        "id": "焼き鯖そうめん-長浜市",
        "name": "長浜市",
        "prefecture": "滋賀県",
        "description": "",
        "lat": 35.3806116,
        "lng": 136.2783094
      }
    ]
  },
  {
    "id": "湯豆腐",
    "name": "湯豆腐",
    "kana": "ゆどうふ",
    "imageQuery": "yudouhu",
    "regions": [
      {
        "id": "湯豆腐-京都市（嵐山）",
        "name": "京都市（嵐山）",
        "prefecture": "京都府",
        "description": "",
        "lat": 35.009449,
        "lng": 135.666773
      },
      {
        "id": "湯豆腐-京都市（南禅寺周辺）",
        "name": "京都市（南禅寺周辺）",
        "prefecture": "京都府",
        "description": "",
        "lat": 35.0114138,
        "lng": 135.7944841
      }
    ]
  },
  {
    "id": "鴨料理",
    "name": "鴨料理",
    "kana": "かもりょうり",
    "imageQuery": "kamo",
    "regions": [
      {
        "id": "鴨料理-京都市",
        "name": "京都市",
        "prefecture": "京都府",
        "description": "",
        "lat": 35.011564,
        "lng": 135.7681489
      }
    ]
  },
  {
    "id": "京懐石",
    "name": "京懐石",
    "kana": "きょうかいせき",
    "imageQuery": "kyoukaiseki",
    "regions": [
      {
        "id": "京懐石-京都市",
        "name": "京都市",
        "prefecture": "京都府",
        "description": "",
        "lat": 35.011564,
        "lng": 135.7681489
      }
    ]
  },
  {
    "id": "鯖寿司",
    "name": "鯖寿司",
    "kana": "さばすし",
    "imageQuery": "sabazusi",
    "regions": [
      {
        "id": "鯖寿司-京都市",
        "name": "京都市",
        "prefecture": "京都府",
        "description": "",
        "lat": 35.011564,
        "lng": 135.7681489
      },
      {
        "id": "焼き鯖寿司-小浜市",
        "name": "小浜市",
        "prefecture": "福井県",
        "description": "",
        "lat": 35.4956278,
        "lng": 135.7467206
      }
    ]
  },
  {
    "id": "鱧料理",
    "name": "鱧料理",
    "kana": "はもりょうり",
    "imageQuery": "hamo",
    "regions": [
      {
        "id": "鱧料理-京都市",
        "name": "京都市",
        "prefecture": "京都府",
        "description": "",
        "lat": 35.011564,
        "lng": 135.7681489
      }
    ]
  },
  {
    "id": "抹茶",
    "name": "抹茶",
    "kana": "まっちゃ",
    "imageQuery": "mattya",
    "regions": [
      {
        "id": "抹茶-京都市",
        "name": "京都市",
        "prefecture": "京都府",
        "description": "",
        "lat": 35.011564,
        "lng": 135.7681489
      }
    ]
  },
  {
    "id": "たこ焼き",
    "name": "たこ焼き",
    "kana": "たこやき",
    "imageQuery": "takoyaki",
    "regions": [
      {
        "id": "たこ焼き-大阪市（難波）",
        "name": "大阪市（難波）",
        "prefecture": "大阪府",
        "description": "",
        "lat": 34.6657531,
        "lng": 135.5010362
      }
    ]
  },
  {
    "id": "お好み焼き",
    "name": "お好み焼き",
    "kana": "おこのみやき",
    "imageQuery": "okonomiyaki",
    "regions": [
      {
        "id": "お好み焼き-大阪市",
        "name": "大阪市",
        "prefecture": "大阪府",
        "description": "関西風",
        "lat": 34.6937249,
        "lng": 135.5022535
      },
      {
        "id": "お好み焼き-広島市",
        "name": "広島市",
        "prefecture": "広島県",
        "description": "広島風",
        "lat": 34.3852894,
        "lng": 132.4553055
      }
    ]
  },
  {
    "id": "串カツ",
    "name": "串カツ",
    "kana": "くしかつ",
    "imageQuery": "kusikatu",
    "regions": [
      {
        "id": "串カツ-大阪市（新世界）",
        "name": "大阪市（新世界）",
        "prefecture": "大阪府",
        "description": "",
        "lat": 34.6516013,
        "lng": 135.5059562
      }
    ]
  },
  {
    "id": "イカ焼き",
    "name": "イカ焼き",
    "kana": "いかやき",
    "imageQuery": "ikayaki",
    "regions": [
      {
        "id": "イカ焼き-大阪市",
        "name": "大阪市",
        "prefecture": "大阪府",
        "description": "",
        "lat": 34.6937249,
        "lng": 135.5022535
      }
    ]
  },
  {
    "id": "肉吸い",
    "name": "肉吸い",
    "kana": "にくすい",
    "imageQuery": "nikusui",
    "regions": [
      {
        "id": "肉吸い-大阪市",
        "name": "大阪市",
        "prefecture": "大阪府",
        "description": "",
        "lat": 34.6937249,
        "lng": 135.5022535
      }
    ]
  },
  {
    "id": "明石焼き",
    "name": "明石焼き",
    "kana": "あかしやき",
    "imageQuery": "akasiyaki",
    "regions": [
      {
        "id": "明石焼き-明石市",
        "name": "明石市",
        "prefecture": "兵庫県",
        "description": "",
        "lat": 34.6432078,
        "lng": 134.9975859
      }
    ]
  },
  {
    "id": "ぼっかけ",
    "name": "ぼっかけ",
    "kana": "ぼっかけ",
    "imageQuery": "bokkake",
    "regions": [
      {
        "id": "ぼっかけ-神戸市",
        "name": "神戸市",
        "prefecture": "兵庫県",
        "description": "",
        "lat": 34.6900806,
        "lng": 135.1956311
      }
    ]
  },
  {
    "id": "玉ねぎ料理",
    "name": "玉ねぎ料理",
    "kana": "たまねぎりょうり",
    "imageQuery": "tamanegi",
    "regions": [
      {
        "id": "玉ねぎ料理-淡路市",
        "name": "淡路市",
        "prefecture": "兵庫県",
        "description": "淡路島玉ねぎ料理",
        "lat": 34.4396558,
        "lng": 134.9149109
      }
    ]
  },
  {
    "id": "鯛料理",
    "name": "鯛料理",
    "kana": "たいりょうり",
    "imageQuery": "tai",
    "regions": [
      {
        "id": "鯛料理-明石市",
        "name": "明石市",
        "prefecture": "兵庫県",
        "description": "明石鯛料理",
        "lat": 34.6432078,
        "lng": 134.9975859
      },
      {
        "id": "鯛料理-和歌山市",
        "name": "和歌山市",
        "prefecture": "和歌山県",
        "description": "加太鯛料理",
        "lat": 34.2303678,
        "lng": 135.1707405
      },
      {
        "id": "鯛料理-鳴門市",
        "name": "鳴門市",
        "prefecture": "徳島県",
        "description": "鳴門鯛料理",
        "lat": 34.1726034,
        "lng": 134.608866
      }
    ]
  },
  {
    "id": "そうめん",
    "name": "そうめん",
    "kana": "そうめん",
    "imageQuery": "soumen",
    "regions": [
      {
        "id": "そうめん-桜井市",
        "name": "桜井市",
        "prefecture": "奈良県",
        "description": "三輪そうめん料理",
        "lat": 34.5186708,
        "lng": 135.8432263
      },
      {
        "id": "そうめん-小豆島町",
        "name": "小豆島町",
        "prefecture": "香川県",
        "description": "小豆島そうめん料理",
        "lat": 34.4818325,
        "lng": 134.2336123
      }
    ]
  },
  {
    "id": "奈良茶粥",
    "name": "奈良茶粥",
    "kana": "ならちゃがゆ",
    "imageQuery": "naratyagayu",
    "regions": [
      {
        "id": "奈良茶粥-奈良市",
        "name": "奈良市",
        "prefecture": "奈良県",
        "description": "",
        "lat": 34.685109,
        "lng": 135.8048019
      }
    ]
  },
  {
    "id": "大和肉鶏料理",
    "name": "大和肉鶏料理",
    "kana": "やまとにくとりりょうり",
    "imageQuery": "yamatonikukei",
    "regions": [
      {
        "id": "大和肉鶏料理-天理市",
        "name": "天理市",
        "prefecture": "奈良県",
        "description": "",
        "lat": 34.5966597,
        "lng": 135.8373605
      }
    ]
  },
  {
    "id": "クエ料理",
    "name": "クエ料理",
    "kana": "くえりょうり",
    "imageQuery": "kue",
    "regions": [
      {
        "id": "クエ料理-すさみ町",
        "name": "すさみ町",
        "prefecture": "和歌山県",
        "description": "",
        "lat": 33.5501227,
        "lng": 135.4966256
      }
    ]
  },
  {
    "id": "梅とんかつ",
    "name": "梅とんかつ",
    "kana": "うめとんかつ",
    "imageQuery": "umetonkatu",
    "regions": [
      {
        "id": "梅とんかつ-みなべ町",
        "name": "みなべ町",
        "prefecture": "和歌山県",
        "description": "",
        "lat": 33.7678758,
        "lng": 135.3176872
      }
    ]
  },
  
  {
    "id": "日生カキオコ",
    "name": "日生カキオコ",
    "kana": "にっせいかきおこ",
    "imageQuery": "nisseikakioko",
    "regions": [
      {
        "id": "日生カキオコ-備前市（日生）",
        "name": "備前市（日生）",
        "prefecture": "岡山県",
        "description": "",
        "lat": 34.7258104,
        "lng": 134.2621146
      }
    ]
  },
  {
    "id": "穴子飯",
    "name": "穴子飯",
    "kana": "あなごめし",
    "imageQuery": "anagomesi",
    "regions": [
      {
        "id": "穴子飯-廿日市市（宮島）",
        "name": "廿日市市（宮島）",
        "prefecture": "広島県",
        "description": "",
        "lat": 34.2732114,
        "lng": 132.3052488
      }
    ]
  },
  {
    "id": "つけ麺",
    "name": "つけ麺",
    "kana": "つけめん",
    "imageQuery": "tukemen",
    "regions": [
      {
        "id": "つけ麺-広島市",
        "name": "広島市",
        "prefecture": "広島県",
        "description": "広島つけ麺",
        "lat": 34.3852894,
        "lng": 132.4553055
      }
    ]
  },
  {
    "id": "砂丘らっきょう料理",
    "name": "砂丘らっきょう料理",
    "kana": "さきゅうらっきょうりょうり",
    "imageQuery": "rakkyou",
    "regions": [
      {
        "id": "砂丘らっきょう料理-鳥取市",
        "name": "鳥取市",
        "prefecture": "鳥取県",
        "description": "",
        "lat": 35.5011082,
        "lng": 134.2351011
      }
    ]
  },
  
  {
    "id": "しじみ汁・しじみ料理",
    "name": "しじみ汁・しじみ料理",
    "kana": "しじみじる・しじみりょうり",
    "imageQuery": "sizimi",
    "regions": [
      {
        "id": "しじみ汁・しじみ料理-松江市",
        "name": "松江市",
        "prefecture": "島根県",
        "description": "",
        "lat": 35.4681908,
        "lng": 133.0484055
      }
    ]
  },
  {
    "id": "宍道湖七珍料理",
    "name": "宍道湖七珍料理",
    "kana": "しんじこしちちんりょうり",
    "imageQuery": "sititin",
    "regions": [
      {
        "id": "宍道湖七珍料理-松江市",
        "name": "松江市",
        "prefecture": "島根県",
        "description": "",
        "lat": 35.4681908,
        "lng": 133.0484055
      }
    ]
  },
  {
    "id": "赤天",
    "name": "赤天",
    "kana": "あかてん",
    "imageQuery": "akaten",
    "regions": [
      {
        "id": "浜田赤天-浜田市",
        "name": "浜田市",
        "prefecture": "島根県",
        "description": "浜田赤天",
        "lat": 34.8993937,
        "lng": 132.0802638
      }
    ]
  },
  {
    "id": "骨付鳥",
    "name": "骨付鳥",
    "kana": "ほねつきとり",
    "imageQuery": "honetukidori",
    "regions": [
      {
        "id": "骨付鳥-丸亀市",
        "name": "丸亀市",
        "prefecture": "香川県",
        "description": "",
        "lat": 34.2893547,
        "lng": 133.797643
      }
    ]
  },
  {
    "id": "鶏料理",
    "name": "鶏料理",
    "kana": "とりりょうり",
    "imageQuery": "tori",
    "regions": [
      {
        "id": "鶏料理-徳島市",
        "name": "徳島市",
        "prefecture": "徳島県",
        "description": "阿波尾鶏料理",
        "lat": 34.0703652,
        "lng": 134.5549537
      },
      {
        "id": "鶏料理-徳島市",
        "name": "徳島市",
        "prefecture": "徳島県",
        "description": "徳島すだち鶏料理",
        "lat": 34.0703652,
        "lng": 134.5549537
      }
    ]
  },
  {
    "id": "フィッシュカツ",
    "name": "フィッシュカツ",
    "kana": "ふぃっしゅかつ",
    "imageQuery": "katu",
    "regions": [
      {
        "id": "徳島フィッシュカツ-徳島市",
        "name": "徳島市",
        "prefecture": "徳島県",
        "description": "徳島フィッシュカツ",
        "lat": 34.0703652,
        "lng": 134.5549537
      }
    ]
  },
  {
    "id": "鯛めし",
    "name": "鯛めし",
    "kana": "たいめし",
    "imageQuery": "taimesi",
    "regions": [
      {
        "id": "鯛めし-宇和島市",
        "name": "宇和島市",
        "prefecture": "愛媛県",
        "description": "",
        "lat": 33.2235707,
        "lng": 132.560384
      },
      {
        "id": "鯛めし-松山市",
        "name": "松山市",
        "prefecture": "愛媛県",
        "description": "道後鯛めし",
        "lat": 33.8355117,
        "lng": 132.7639923
      }
    ]
  },
  {
    "id": "焼豚玉子飯",
    "name": "焼豚玉子飯",
    "kana": "やきぶたたまごめし",
    "imageQuery": "tamagomesi",
    "regions": [
      {
        "id": "焼豚玉子飯-今治市",
        "name": "今治市",
        "prefecture": "愛媛県",
        "description": "",
        "lat": 34.0662024,
        "lng": 132.9977906
      }
    ]
  },
  {
    "id": "じゃこ天",
    "name": "じゃこ天",
    "kana": "じゃこてん",
    "imageQuery": "jakoten",
    "regions": [
      {
        "id": "じゃこ天-宇和島市",
        "name": "宇和島市",
        "prefecture": "愛媛県",
        "description": "",
        "lat": 33.2235707,
        "lng": 132.560384
      }
    ]
  },
  
 
  {
    "id": "もつ鍋",
    "name": "もつ鍋",
    "kana": "もつなべ",
    "imageQuery": "motunabe",
    "regions": [
      {
        "id": "もつ鍋-福岡市",
        "name": "福岡市",
        "prefecture": "福岡県",
        "description": "",
        "lat": 33.5901838,
        "lng": 130.4016888
      }
    ]
  },
  {
    "id": "水炊き",
    "name": "水炊き",
    "kana": "みずたき",
    "imageQuery": "mizutaki",
    "regions": [
      {
        "id": "水炊き-福岡市",
        "name": "福岡市",
        "prefecture": "福岡県",
        "description": "",
        "lat": 33.5901838,
        "lng": 130.4016888
      }
    ]
  },
  
  {
    "id": "明太子料理",
    "name": "明太子料理",
    "kana": "めんたいこりょうり",
    "imageQuery": "mentaiko",
    "regions": [
      {
        "id": "明太子料理-福岡市",
        "name": "福岡市",
        "prefecture": "福岡県",
        "description": "",
        "lat": 33.5901838,
        "lng": 130.4016888
      }
    ]
  },
  {
    "id": "イカ",
    "name": "イカ",
    "kana": "いか",
    "imageQuery": "ika",
    "regions": [
      {
        "id": "イカ刺し-函館市",
        "name": "函館市",
        "prefecture": "北海道",
        "description": "函館イカ刺し",
        "lat": 41.7686961,
        "lng": 140.7290599
      },
      {
        "id": "ホタルイカ料理-滑川市",
        "name": "滑川市",
        "prefecture": "富山県",
        "description": "",
        "lat": 36.7644132,
        "lng": 137.3411988
      },
      {
        "id": "イカ-唐津市（呼子）",
        "name": "唐津市（呼子）",
        "prefecture": "佐賀県",
        "description": "呼子イカ",
        "lat": 33.5415987,
        "lng": 129.8964772
      },
      {
        "id": "白イカ料理-鳥取市",
        "name": "鳥取市",
        "prefecture": "鳥取県",
        "description": "白イカ料理",
        "lat": 35.5011082,
        "lng": 134.2351011
      }
      
    ]
  },
  
  
  {
    "id": "佐世保バーガー",
    "name": "佐世保バーガー",
    "kana": "させぼばーがー",
    "imageQuery": "ba-ga-",
    "regions": [
      {
        "id": "佐世保バーガー-佐世保市",
        "name": "佐世保市",
        "prefecture": "長崎県",
        "description": "",
        "lat": 33.1804356,
        "lng": 129.7157996
      }
    ]
  },
  {
    "id": "トルコライス",
    "name": "トルコライス",
    "kana": "とるこらいす",
    "imageQuery": "torukoraisu",
    "regions": [
      {
        "id": "トルコライス-長崎市",
        "name": "長崎市",
        "prefecture": "長崎県",
        "description": "",
        "lat": 32.7503334,
        "lng": 129.8778888
      }
    ]
  },
  {
    "id": "ヒラメ料理",
    "name": "ヒラメ料理",
    "kana": "ひらめりょうり",
    "imageQuery": "hirame",
    "regions": [
      {
        "id": "ヒラメ料理-平戸市",
        "name": "平戸市",
        "prefecture": "長崎県",
        "description": "平戸ヒラメ料理",
        "lat": 33.3680242,
        "lng": 129.5536778
      }
    ]
  },
  {
    "id": "穴子料理",
    "name": "穴子料理",
    "kana": "あなごりょうり",
    "imageQuery": "anago",
    "regions": [
      {
        "id": "穴子料理-対馬市",
        "name": "対馬市",
        "prefecture": "長崎県",
        "description": "対馬穴子料理",
        "lat": 34.2027806,
        "lng": 129.2875205
      }
    ]
  },
  
  
  {
    "id": "太平燕",
    "name": "太平燕",
    "kana": "たいぴーえん",
    "imageQuery": "taipi-en",
    "regions": [
      {
        "id": "太平燕-熊本市",
        "name": "熊本市",
        "prefecture": "熊本県",
        "description": "",
        "lat": 32.8032164,
        "lng": 130.7079369
      }
    ]
  },
  {
    "id": "からし蓮根",
    "name": "からし蓮根",
    "kana": "からしれんこん",
    "imageQuery": "karasirenkon",
    "regions": [
      {
        "id": "からし蓮根-熊本市",
        "name": "熊本市",
        "prefecture": "熊本県",
        "description": "",
        "lat": 32.8032164,
        "lng": 130.7079369
      }
    ]
  },
  {
    "id": "天草大王料理",
    "name": "天草大王料理",
    "kana": "あまくさだいおうりょうり",
    "imageQuery": "amakusadaiou",
    "regions": [
      {
        "id": "天草大王料理-天草市",
        "name": "天草市",
        "prefecture": "熊本県",
        "description": "",
        "lat": 32.4585255,
        "lng": 130.1934363
      }
    ]
  },
  {
    "id": "とり天",
    "name": "とり天",
    "kana": "とりてん",
    "imageQuery": "toriten",
    "regions": [
      {
        "id": "とり天-大分市",
        "name": "大分市",
        "prefecture": "大分県",
        "description": "",
        "lat": 33.2391265,
        "lng": 131.6073527
      }
    ]
  },
  {
    "id": "だんご汁",
    "name": "だんご汁",
    "kana": "だんごじる",
    "imageQuery": "dangoziru",
    "regions": [
      {
        "id": "だんご汁-由布市（湯布院）",
        "name": "由布市（湯布院）",
        "prefecture": "大分県",
        "description": "",
        "lat": 33.266822,
        "lng": 131.3609997
      }
    ]
  },
  {
    "id": "地獄蒸し",
    "name": "地獄蒸し",
    "kana": "じごくむし",
    "imageQuery": "zigokumusi",
    "regions": [
      {
        "id": "地獄蒸し-別府市",
        "name": "別府市",
        "prefecture": "大分県",
        "description": "",
        "lat": 33.2844614,
        "lng": 131.4907093
      }
    ]
  },
  
  {
    "id": "からあげ",
    "name": "からあげ",
    "kana": "からあげ",
    "imageQuery": "karaage",
    "regions": [
      {
        "id": "からあげ-中津市",
        "name": "中津市",
        "prefecture": "大分県",
        "description": "中津からあげ",
        "lat": 33.5557659,
        "lng": 131.2009971
      },
      {
        "id": "からあげ-宇佐市",
        "name": "宇佐市",
        "prefecture": "大分県",
        "description": "宇佐からあげ",
        "lat": 33.5319902,
        "lng": 131.3496285
      }
    ]
  },
  {
    "id": "チキン南蛮",
    "name": "チキン南蛮",
    "kana": "ちきんなんばん",
    "imageQuery": "tikinnanban",
    "regions": [
      {
        "id": "チキン南蛮-延岡市",
        "name": "延岡市",
        "prefecture": "宮崎県",
        "description": "",
        "lat": 32.5823201,
        "lng": 131.6651407
      }
    ]
  },
  
  {
    "id": "冷や汁",
    "name": "冷や汁",
    "kana": "ひやじる",
    "imageQuery": "hiyaziru",
    "regions": [
      {
        "id": "冷や汁-宮崎市",
        "name": "宮崎市",
        "prefecture": "宮崎県",
        "description": "",
        "lat": 31.9077285,
        "lng": 131.4202196
      }
    ]
  },
  {
    "id": "辛麺",
    "name": "辛麺",
    "kana": "しんめん",
    "imageQuery": "sinmen",
    "regions": [
      {
        "id": "辛麺-宮崎市",
        "name": "宮崎市",
        "prefecture": "宮崎県",
        "description": "",
        "lat": 31.9077285,
        "lng": 131.4202196
      },
      {
        "id": "宮崎辛麺-延岡市",
        "name": "延岡市",
        "prefecture": "宮崎県",
        "description": "宮崎辛麺",
        "lat": 32.5823201,
        "lng": 131.6651407
      }
    ]
  },
  {
    "id": "うなまぶし",
    "name": "うなまぶし",
    "kana": "うなまぶし",
    "imageQuery": "unamabusi",
    "regions": [
      {
        "id": "うなまぶし-宮崎市",
        "name": "宮崎市",
        "prefecture": "宮崎県",
        "description": "",
        "lat": 31.9077285,
        "lng": 131.4202196
      }
    ]
  },
  {
    "id": "黒豚料理",
    "name": "黒豚料理",
    "kana": "くろぶたりょうり",
    "imageQuery": "kurobuta",
    "regions": [
      {
        "id": "黒豚料理-鹿児島市",
        "name": "鹿児島市",
        "prefecture": "鹿児島県",
        "description": "",
        "lat": 31.5968539,
        "lng": 130.5571392
      }
    ]
  },
  {
    "id": "白熊",
    "name": "白熊",
    "kana": "しろくま",
    "imageQuery": "sirokuma",
    "regions": [
      {
        "id": "白熊-鹿児島市",
        "name": "鹿児島市",
        "prefecture": "鹿児島県",
        "description": "",
        "lat": 31.5968539,
        "lng": 130.5571392
      }
    ]
  },
  {
    "id": "鶏飯",
    "name": "鶏飯",
    "kana": "けいはん",
    "imageQuery": "keihan",
    "regions": [
      {
        "id": "鶏飯-奄美市",
        "name": "奄美市",
        "prefecture": "鹿児島県",
        "description": "",
        "lat": 28.3773699,
        "lng": 129.4938065
      }
    ]
  },
  {
    "id": "さつま揚げ",
    "name": "さつま揚げ",
    "kana": "さつまあげ",
    "imageQuery": "satumaage",
    "regions": [
      {
        "id": "さつま揚げ-鹿児島市",
        "name": "鹿児島市",
        "prefecture": "鹿児島県",
        "description": "",
        "lat": 31.5968539,
        "lng": 130.5571392
      }
    ]
  },
  {
    "id": "きびなご料理",
    "name": "きびなご料理",
    "kana": "きびなごりょうり",
    "imageQuery": "kibinago",
    "regions": [
      {
        "id": "きびなご料理-指宿市",
        "name": "指宿市",
        "prefecture": "鹿児島県",
        "description": "",
        "lat": 31.2527917,
        "lng": 130.6330497
      }
    ]
  },
  {
    "id": "黒さつま鶏料理",
    "name": "黒さつま鶏料理",
    "kana": "くろさつまとりりょうり",
    "imageQuery": "kurosatuma",
    "regions": [
      {
        "id": "黒さつま鶏料理-鹿児島市",
        "name": "鹿児島市",
        "prefecture": "鹿児島県",
        "description": "鹿児島黒さつま鶏料理",
        "lat": 31.5968539,
        "lng": 130.5571392
      }
    ]
  },
  {
    "id": "温泉湯豆腐",
    "name": "温泉湯豆腐",
    "kana": "おんせんゆどうふ",
    "imageQuery": "onsenyudouhu",
    "regions": [
      {
        "id": "指宿砂むし温泉湯豆腐-指宿市",
        "name": "指宿市",
        "prefecture": "鹿児島県",
        "description": "指宿砂むし温泉湯豆腐",
        "lat": 31.2527917,
        "lng": 130.6330497
      },
      {
        "id": "嬉野温泉湯豆腐-嬉野市",
        "name": "嬉野市",
        "prefecture": "佐賀県",
        "description": "嬉野温泉湯豆腐",
        "lat": 33.1009323,
        "lng": 129.9870664
      }
    ]
  },
  
  {
    "id": "ゴーヤーチャンプルー",
    "name": "ゴーヤーチャンプルー",
    "kana": "ごーやーちゃんぷるー",
    "imageQuery": "go-ya",
    "regions": [
      {
        "id": "ゴーヤーチャンプルー-那覇市",
        "name": "那覇市",
        "prefecture": "沖縄県",
        "description": "",
        "lat": 26.2130411,
        "lng": 127.6785471
      }
    ]
  },
  {
    "id": "ラフテー",
    "name": "ラフテー",
    "kana": "らふてー",
    "imageQuery": "rahute-",
    "regions": [
      {
        "id": "ラフテー-那覇市",
        "name": "那覇市",
        "prefecture": "沖縄県",
        "description": "",
        "lat": 26.2130411,
        "lng": 127.6785471
      }
    ]
  },
  {
    "id": "アグー豚料理",
    "name": "アグー豚料理",
    "kana": "あぐーぶたりょうり",
    "imageQuery": "agu-",
    "regions": [
      {
        "id": "アグー豚料理-名護市",
        "name": "名護市",
        "prefecture": "沖縄県",
        "description": "",
        "lat": 26.5915575,
        "lng": 127.9775272
      }
    ]
  },
  {
    "id": "宮古ヤギ汁",
    "name": "宮古ヤギ汁",
    "kana": "みやこやぎじる",
    "imageQuery": "yagiziru",
    "regions": [
      {
        "id": "宮古ヤギ汁-宮古島市",
        "name": "宮古島市",
        "prefecture": "沖縄県",
        "description": "",
        "lat": 24.7934182,
        "lng": 125.2889743
      }
    ]
  }
  
]