[
  {
    "id": "味噌ラーメン",
    "name": "味噌ラーメン",
    "imageQuery": "味噌ラーメン",
    "regions": [
      {
        "id": "味噌ラーメン-札幌市",
        "name": "札幌市",
        "prefecture": "北海道",
        "description": "",
        "lat": 43.0617713,
        "lng": 141.3544506
      }
    ]
  },
  {
    "id": "旭川ラーメン",
    "name": "旭川ラーメン",
    "imageQuery": "旭川ラーメン",
    "regions": [
      {
        "id": "旭川ラーメン-旭川市",
        "name": "旭川市",
        "prefecture": "北海道",
        "description": "",
        "lat": 43.7708833,
        "lng": 142.3650083
      }
    ]
  },
  {
    "id": "函館塩ラーメン",
    "name": "函館塩ラーメン",
    "imageQuery": "函館塩ラーメン",
    "regions": [
      {
        "id": "函館塩ラーメン-函館市",
        "name": "函館市",
        "prefecture": "北海道",
        "description": "",
        "lat": 41.7686961,
        "lng": 140.7290599
      }
    ]
  },
  {
    "id": "函館イカ刺し",
    "name": "函館イカ刺し",
    "imageQuery": "函館イカ刺し",
    "regions": [
      {
        "id": "函館イカ刺し-函館市",
        "name": "函館市",
        "prefecture": "北海道",
        "description": "",
        "lat": 41.7686961,
        "lng": 140.7290599
      }
    ]
  },
  {
    "id": "海鮮丼",
    "name": "海鮮丼",
    "imageQuery": "海鮮丼",
    "regions": [
      {
        "id": "海鮮丼-小樽市",
        "name": "小樽市",
        "prefecture": "北海道",
        "description": "",
        "lat": 43.1902372,
        "lng": 140.994172
      },
      {
        "id": "海鮮丼-銚子市",
        "name": "銚子市",
        "prefecture": "千葉県",
        "description": "",
        "lat": 35.7340035,
        "lng": 140.8267464
      },
      {
        "id": "海鮮丼-七尾市",
        "name": "七尾市",
        "prefecture": "石川県",
        "description": "",
        "lat": 37.0438483,
        "lng": 136.9641261
      },
      {
        "id": "海鮮丼-輪島市",
        "name": "輪島市",
        "prefecture": "石川県",
        "description": "",
        "lat": 37.3910935,
        "lng": 136.9025211
      }
    ]
  },
  {
    "id": "寿司",
    "name": "寿司",
    "imageQuery": "寿司",
    "regions": [
      {
        "id": "寿司-小樽市",
        "name": "小樽市",
        "prefecture": "北海道",
        "description": "",
        "lat": 43.1902372,
        "lng": 140.994172
      }
    ]
  },
  {
    "id": "ジンギスカン",
    "name": "ジンギスカン",
    "imageQuery": "ジンギスカン",
    "regions": [
      {
        "id": "ジンギスカン-札幌市",
        "name": "札幌市",
        "prefecture": "北海道",
        "description": "",
        "lat": 43.0617713,
        "lng": 141.3544506
      },
      {
        "id": "ジンギスカン-滝川市",
        "name": "滝川市",
        "prefecture": "北海道",
        "description": "",
        "lat": 43.5578133,
        "lng": 141.9103331
      }
    ]
  },
  {
    "id": "ちゃんちゃん焼き",
    "name": "ちゃんちゃん焼き",
    "imageQuery": "ちゃんちゃん焼き",
    "regions": [
      {
        "id": "ちゃんちゃん焼き-石狩市",
        "name": "石狩市",
        "prefecture": "北海道",
        "description": "",
        "lat": 43.1714217,
        "lng": 141.3155371
      }
    ]
  },
  {
    "id": "石狩鍋",
    "name": "石狩鍋",
    "imageQuery": "石狩鍋",
    "regions": [
      {
        "id": "石狩鍋-石狩市",
        "name": "石狩市",
        "prefecture": "北海道",
        "description": "",
        "lat": 43.1714217,
        "lng": 141.3155371
      }
    ]
  },
  {
    "id": "カニ料理",
    "name": "カニ料理",
    "imageQuery": "カニ料理",
    "regions": [
      {
        "id": "カニ料理-網走市",
        "name": "網走市",
        "prefecture": "北海道",
        "description": "",
        "lat": 44.0206059,
        "lng": 144.2734837
      },
      {
        "id": "カニ料理-稚内市",
        "name": "稚内市",
        "prefecture": "北海道",
        "description": "",
        "lat": 45.4156307,
        "lng": 141.6733641
      },
      {
        "id": "カニ料理-豊岡市（城崎）",
        "name": "豊岡市（城崎）",
        "prefecture": "兵庫県",
        "description": "",
        "lat": 35.6241637,
        "lng": 134.8131005
      },
      {
        "id": "カニ料理-新温泉町（浜坂）",
        "name": "新温泉町（浜坂）",
        "prefecture": "兵庫県",
        "description": "",
        "lat": 35.6232664,
        "lng": 134.4546213
      },
      {
        "id": "カニ料理-境港市",
        "name": "境港市",
        "prefecture": "鳥取県",
        "description": "",
        "lat": 35.5396534,
        "lng": 133.2316204
      },
      {
        "id": "カニ料理-鳥取市",
        "name": "鳥取市",
        "prefecture": "鳥取県",
        "description": "",
        "lat": 35.5011082,
        "lng": 134.2351011
      }
    ]
  },
  {
    "id": "根室花咲ガニ料理",
    "name": "根室花咲ガニ料理",
    "imageQuery": "根室花咲ガニ料理",
    "regions": [
      {
        "id": "根室花咲ガニ料理-根室市",
        "name": "根室市",
        "prefecture": "北海道",
        "description": "",
        "lat": 43.3301005,
        "lng": 145.5828182
      }
    ]
  },
  {
    "id": "ホタテ料理",
    "name": "ホタテ料理",
    "imageQuery": "ホタテ料理",
    "regions": [
      {
        "id": "ホタテ料理-紋別市",
        "name": "紋別市",
        "prefecture": "北海道",
        "description": "",
        "lat": 44.3564386,
        "lng": 143.3543524
      },
      {
        "id": "ホタテ料理-湧別町",
        "name": "湧別町",
        "prefecture": "北海道",
        "description": "",
        "lat": 44.1515482999999,
        "lng": 143.5729108
      }
    ]
  },
  {
    "id": "ウニ丼",
    "name": "ウニ丼",
    "imageQuery": "ウニ丼",
    "regions": [
      {
        "id": "ウニ丼-積丹町",
        "name": "積丹町",
        "prefecture": "北海道",
        "description": "",
        "lat": 43.2987453,
        "lng": 140.5980588
      },
      {
        "id": "ウニ丼-利尻町",
        "name": "利尻町",
        "prefecture": "北海道",
        "description": "",
        "lat": 45.1870791,
        "lng": 141.1396511
      },
      {
        "id": "ウニ丼-礼文町",
        "name": "礼文町",
        "prefecture": "北海道",
        "description": "",
        "lat": 45.3032949,
        "lng": 141.0478819
      }
    ]
  },
  {
    "id": "いくら丼",
    "name": "いくら丼",
    "imageQuery": "いくら丼",
    "regions": [
      {
        "id": "いくら丼-釧路市",
        "name": "釧路市",
        "prefecture": "北海道",
        "description": "",
        "lat": 42.9849413,
        "lng": 144.381804
      }
    ]
  },
  {
    "id": "ザンギ",
    "name": "ザンギ",
    "imageQuery": "ザンギ",
    "regions": [
      {
        "id": "ザンギ-釧路市",
        "name": "釧路市",
        "prefecture": "北海道",
        "description": "",
        "lat": 42.9849413,
        "lng": 144.381804
      }
    ]
  },
  {
    "id": "室蘭やきとり",
    "name": "室蘭やきとり",
    "imageQuery": "室蘭やきとり",
    "regions": [
      {
        "id": "室蘭やきとり-室蘭市",
        "name": "室蘭市",
        "prefecture": "北海道",
        "description": "",
        "lat": 42.3151792,
        "lng": 140.9737666
      }
    ]
  },
  {
    "id": "海鮮炉端焼き",
    "name": "海鮮炉端焼き",
    "imageQuery": "海鮮炉端焼き",
    "regions": [
      {
        "id": "海鮮炉端焼き-釧路市",
        "name": "釧路市",
        "prefecture": "北海道",
        "description": "",
        "lat": 42.9849413,
        "lng": 144.381804
      }
    ]
  },
  {
    "id": "塩ホルモン",
    "name": "塩ホルモン",
    "imageQuery": "塩ホルモン",
    "regions": [
      {
        "id": "塩ホルモン-北見市",
        "name": "北見市",
        "prefecture": "北海道",
        "description": "",
        "lat": 43.8039761,
        "lng": 143.8957837
      }
    ]
  },
  {
    "id": "帯広豚丼",
    "name": "帯広豚丼",
    "imageQuery": "帯広豚丼",
    "regions": [
      {
        "id": "帯広豚丼-帯広市",
        "name": "帯広市",
        "prefecture": "北海道",
        "description": "",
        "lat": 42.9233354,
        "lng": 143.197199
      }
    ]
  },
  {
    "id": "厚岸牡蠣料理",
    "name": "厚岸牡蠣料理",
    "imageQuery": "厚岸牡蠣料理",
    "regions": [
      {
        "id": "厚岸牡蠣料理-厚岸町",
        "name": "厚岸町",
        "prefecture": "北海道",
        "description": "",
        "lat": 43.0519506,
        "lng": 144.8473693
      }
    ]
  },
  {
    "id": "羅臼昆布料理",
    "name": "羅臼昆布料理",
    "imageQuery": "羅臼昆布料理",
    "regions": [
      {
        "id": "羅臼昆布料理-羅臼町",
        "name": "羅臼町",
        "prefecture": "北海道",
        "description": "",
        "lat": 44.0218788,
        "lng": 145.1897129
      }
    ]
  },
  {
    "id": "知床海鮮",
    "name": "知床海鮮",
    "imageQuery": "知床海鮮",
    "regions": [
      {
        "id": "知床海鮮-斜里町",
        "name": "斜里町",
        "prefecture": "北海道",
        "description": "",
        "lat": 43.9114765,
        "lng": 144.6707651
      }
    ]
  },
  {
    "id": "美瑛カレー",
    "name": "美瑛カレー",
    "imageQuery": "美瑛カレー",
    "regions": [
      {
        "id": "美瑛カレー-美瑛町",
        "name": "美瑛町",
        "prefecture": "北海道",
        "description": "",
        "lat": 43.5874260999999,
        "lng": 142.4666158
      }
    ]
  },
  {
    "id": "北見焼肉",
    "name": "北見焼肉",
    "imageQuery": "北見焼肉",
    "regions": [
      {
        "id": "北見焼肉-北見市",
        "name": "北見市",
        "prefecture": "北海道",
        "description": "",
        "lat": 43.8039761,
        "lng": 143.8957837
      }
    ]
  },
  {
    "id": "スパカツ",
    "name": "スパカツ",
    "imageQuery": "スパカツ",
    "regions": [
      {
        "id": "スパカツ-釧路市",
        "name": "釧路市",
        "prefecture": "北海道",
        "description": "",
        "lat": 42.9849413,
        "lng": 144.381804
      }
    ]
  },
  {
    "id": "あげいも",
    "name": "あげいも",
    "imageQuery": "あげいも",
    "regions": [
      {
        "id": "あげいも-洞爺湖町",
        "name": "洞爺湖町",
        "prefecture": "北海道",
        "description": "",
        "lat": 42.5472040999999,
        "lng": 140.7663242
      }
    ]
  },
  {
    "id": "ラーメンサラダ",
    "name": "ラーメンサラダ",
    "imageQuery": "ラーメンサラダ",
    "regions": [
      {
        "id": "ラーメンサラダ-札幌市",
        "name": "札幌市",
        "prefecture": "北海道",
        "description": "",
        "lat": 43.0617713,
        "lng": 141.3544506
      }
    ]
  },
  {
    "id": "美唄やきとり",
    "name": "美唄やきとり",
    "imageQuery": "美唄やきとり",
    "regions": [
      {
        "id": "美唄やきとり-美唄市",
        "name": "美唄市",
        "prefecture": "北海道",
        "description": "",
        "lat": 43.3328322,
        "lng": 141.8538617
      }
    ]
  },
  {
    "id": "夕張カレーそば",
    "name": "夕張カレーそば",
    "imageQuery": "夕張カレーそば",
    "regions": [
      {
        "id": "夕張カレーそば-夕張市",
        "name": "夕張市",
        "prefecture": "北海道",
        "description": "",
        "lat": 43.0567681,
        "lng": 141.9739433
      }
    ]
  },
  {
    "id": "小樽あんかけ焼そば",
    "name": "小樽あんかけ焼そば",
    "imageQuery": "小樽あんかけ焼そば",
    "regions": [
      {
        "id": "小樽あんかけ焼そば-小樽市",
        "name": "小樽市",
        "prefecture": "北海道",
        "description": "",
        "lat": 43.1902372,
        "lng": 140.994172
      }
    ]
  },
  {
    "id": "大間マグロ",
    "name": "大間マグロ",
    "imageQuery": "大間マグロ",
    "regions": [
      {
        "id": "大間マグロ-大間町",
        "name": "大間町",
        "prefecture": "青森県",
        "description": "",
        "lat": 41.5267934,
        "lng": 140.9074974
      }
    ]
  },
  {
    "id": "八戸せんべい汁",
    "name": "八戸せんべい汁",
    "imageQuery": "八戸せんべい汁",
    "regions": [
      {
        "id": "八戸せんべい汁-八戸市",
        "name": "八戸市",
        "prefecture": "青森県",
        "description": "",
        "lat": 40.5122055,
        "lng": 141.4882743
      }
    ]
  },
  {
    "id": "貝焼き味噌",
    "name": "貝焼き味噌",
    "imageQuery": "貝焼き味噌",
    "regions": [
      {
        "id": "貝焼き味噌-青森市",
        "name": "青森市",
        "prefecture": "青森県",
        "description": "",
        "lat": 40.8222197,
        "lng": 140.7473524
      }
    ]
  },
  {
    "id": "味噌カレー牛乳ラーメン",
    "name": "味噌カレー牛乳ラーメン",
    "imageQuery": "味噌カレー牛乳ラーメン",
    "regions": [
      {
        "id": "味噌カレー牛乳ラーメン-青森市",
        "name": "青森市",
        "prefecture": "青森県",
        "description": "",
        "lat": 40.8222197,
        "lng": 140.7473524
      }
    ]
  },
  {
    "id": "いちご煮",
    "name": "いちご煮",
    "imageQuery": "いちご煮",
    "regions": [
      {
        "id": "いちご煮-八戸市",
        "name": "八戸市",
        "prefecture": "青森県",
        "description": "",
        "lat": 40.5122055,
        "lng": 141.4882743
      }
    ]
  },
  {
    "id": "十和田バラ焼き",
    "name": "十和田バラ焼き",
    "imageQuery": "十和田バラ焼き",
    "regions": [
      {
        "id": "十和田バラ焼き-十和田市",
        "name": "十和田市",
        "prefecture": "青森県",
        "description": "",
        "lat": 40.6126011,
        "lng": 141.2069318
      }
    ]
  },
  {
    "id": "黒石つゆ焼きそば",
    "name": "黒石つゆ焼きそば",
    "imageQuery": "黒石つゆ焼きそば",
    "regions": [
      {
        "id": "黒石つゆ焼きそば-黒石市",
        "name": "黒石市",
        "prefecture": "青森県",
        "description": "",
        "lat": 40.6426266,
        "lng": 140.5946719
      }
    ]
  },
  {
    "id": "十三湖しじみラーメン",
    "name": "十三湖しじみラーメン",
    "imageQuery": "十三湖しじみラーメン",
    "regions": [
      {
        "id": "十三湖しじみラーメン-五所川原市",
        "name": "五所川原市",
        "prefecture": "青森県",
        "description": "",
        "lat": 40.8076933,
        "lng": 140.4461156
      }
    ]
  },
  {
    "id": "弘前中みそラーメン",
    "name": "弘前中みそラーメン",
    "imageQuery": "弘前中みそラーメン",
    "regions": [
      {
        "id": "弘前中みそラーメン-弘前市",
        "name": "弘前市",
        "prefecture": "青森県",
        "description": "",
        "lat": 40.6030626,
        "lng": 140.4640543
      }
    ]
  },
  {
    "id": "深浦マグロ料理",
    "name": "深浦マグロ料理",
    "imageQuery": "深浦マグロ料理",
    "regions": [
      {
        "id": "深浦マグロ料理-深浦町",
        "name": "深浦町",
        "prefecture": "青森県",
        "description": "",
        "lat": 40.6478459,
        "lng": 139.9276062
      }
    ]
  },
  {
    "id": "けの汁",
    "name": "けの汁",
    "imageQuery": "けの汁",
    "regions": [
      {
        "id": "けの汁-弘前市",
        "name": "弘前市",
        "prefecture": "青森県",
        "description": "",
        "lat": 40.6030626,
        "lng": 140.4640543
      }
    ]
  },
  {
    "id": "しじみ貝焼き",
    "name": "しじみ貝焼き",
    "imageQuery": "しじみ貝焼き",
    "regions": [
      {
        "id": "しじみ貝焼き-五所川原市",
        "name": "五所川原市",
        "prefecture": "青森県",
        "description": "",
        "lat": 40.8076933,
        "lng": 140.4461156
      }
    ]
  },
  {
    "id": "わんこそば",
    "name": "わんこそば",
    "imageQuery": "わんこそば",
    "regions": [
      {
        "id": "わんこそば-盛岡市",
        "name": "盛岡市",
        "prefecture": "岩手県",
        "description": "",
        "lat": 39.7019558,
        "lng": 141.1543303
      }
    ]
  },
  {
    "id": "盛岡冷麺",
    "name": "盛岡冷麺",
    "imageQuery": "盛岡冷麺",
    "regions": [
      {
        "id": "盛岡冷麺-盛岡市",
        "name": "盛岡市",
        "prefecture": "岩手県",
        "description": "",
        "lat": 39.7019558,
        "lng": 141.1543303
      }
    ]
  },
  {
    "id": "じゃじゃ麺",
    "name": "じゃじゃ麺",
    "imageQuery": "じゃじゃ麺",
    "regions": [
      {
        "id": "じゃじゃ麺-盛岡市",
        "name": "盛岡市",
        "prefecture": "岩手県",
        "description": "",
        "lat": 39.7019558,
        "lng": 141.1543303
      }
    ]
  },
  {
    "id": "前沢牛料理",
    "name": "前沢牛料理",
    "imageQuery": "前沢牛料理",
    "regions": [
      {
        "id": "前沢牛料理-奥州市",
        "name": "奥州市",
        "prefecture": "岩手県",
        "description": "",
        "lat": 39.1444106,
        "lng": 141.1392153
      }
    ]
  },
  {
    "id": "瓶ドン",
    "name": "瓶ドン",
    "imageQuery": "瓶ドン",
    "regions": [
      {
        "id": "瓶ドン-宮古市",
        "name": "宮古市",
        "prefecture": "岩手県",
        "description": "",
        "lat": 39.6394645,
        "lng": 141.9462611
      }
    ]
  },
  {
    "id": "遠野ジンギスカン",
    "name": "遠野ジンギスカン",
    "imageQuery": "遠野ジンギスカン",
    "regions": [
      {
        "id": "遠野ジンギスカン-遠野市",
        "name": "遠野市",
        "prefecture": "岩手県",
        "description": "",
        "lat": 39.3306618,
        "lng": 141.5314512
      }
    ]
  },
  {
    "id": "三陸海鮮丼",
    "name": "三陸海鮮丼",
    "imageQuery": "三陸海鮮丼",
    "regions": [
      {
        "id": "三陸海鮮丼-大船渡市",
        "name": "大船渡市",
        "prefecture": "岩手県",
        "description": "",
        "lat": 39.0832516,
        "lng": 141.708378
      }
    ]
  },
  {
    "id": "三陸ウニ丼",
    "name": "三陸ウニ丼",
    "imageQuery": "三陸ウニ丼",
    "regions": [
      {
        "id": "三陸ウニ丼-久慈市",
        "name": "久慈市",
        "prefecture": "岩手県",
        "description": "",
        "lat": 40.190462,
        "lng": 141.7755843
      }
    ]
  },
  {
    "id": "釜石ラーメン",
    "name": "釜石ラーメン",
    "imageQuery": "釜石ラーメン",
    "regions": [
      {
        "id": "釜石ラーメン-釜石市",
        "name": "釜石市",
        "prefecture": "岩手県",
        "description": "",
        "lat": 39.2758046,
        "lng": 141.8857275
      }
    ]
  },
  {
    "id": "大槌サンマ料理",
    "name": "大槌サンマ料理",
    "imageQuery": "大槌サンマ料理",
    "regions": [
      {
        "id": "大槌サンマ料理-大槌町",
        "name": "大槌町",
        "prefecture": "岩手県",
        "description": "",
        "lat": 39.3583253,
        "lng": 141.9005361
      }
    ]
  },
  {
    "id": "盛岡ホルモン",
    "name": "盛岡ホルモン",
    "imageQuery": "盛岡ホルモン",
    "regions": [
      {
        "id": "盛岡ホルモン-盛岡市",
        "name": "盛岡市",
        "prefecture": "岩手県",
        "description": "",
        "lat": 39.7019558,
        "lng": 141.1543303
      }
    ]
  },
  {
    "id": "ひっつみ汁",
    "name": "ひっつみ汁",
    "imageQuery": "ひっつみ汁",
    "regions": [
      {
        "id": "ひっつみ汁-花巻市",
        "name": "花巻市",
        "prefecture": "岩手県",
        "description": "",
        "lat": 39.3886253,
        "lng": 141.1168998
      }
    ]
  },
  {
    "id": "牛タン",
    "name": "牛タン",
    "imageQuery": "牛タン",
    "regions": [
      {
        "id": "牛タン-仙台市",
        "name": "仙台市",
        "prefecture": "宮城県",
        "description": "",
        "lat": 38.268195,
        "lng": 140.869418
      }
    ]
  },
  {
    "id": "仙台牛料理",
    "name": "仙台牛料理",
    "imageQuery": "仙台牛料理",
    "regions": [
      {
        "id": "仙台牛料理-仙台市",
        "name": "仙台市",
        "prefecture": "宮城県",
        "description": "",
        "lat": 38.268195,
        "lng": 140.869418
      }
    ]
  },
  {
    "id": "牡蠣料理",
    "name": "牡蠣料理",
    "imageQuery": "牡蠣料理",
    "regions": [
      {
        "id": "牡蠣料理-松島町",
        "name": "松島町",
        "prefecture": "宮城県",
        "description": "",
        "lat": 38.3801905,
        "lng": 141.067293
      },
      {
        "id": "牡蠣料理-石巻市",
        "name": "石巻市",
        "prefecture": "宮城県",
        "description": "",
        "lat": 38.434332,
        "lng": 141.3028682
      },
      {
        "id": "牡蠣料理-気仙沼市",
        "name": "気仙沼市",
        "prefecture": "宮城県",
        "description": "",
        "lat": 38.907641,
        "lng": 141.5703316
      },
      {
        "id": "牡蠣料理-能登町",
        "name": "能登町",
        "prefecture": "石川県",
        "description": "",
        "lat": 37.307967,
        "lng": 137.1490082
      },
      {
        "id": "牡蠣料理-鳥羽市",
        "name": "鳥羽市",
        "prefecture": "三重県",
        "description": "",
        "lat": 34.4818168,
        "lng": 136.8432542
      },
      {
        "id": "牡蠣料理-赤穂市",
        "name": "赤穂市",
        "prefecture": "兵庫県",
        "description": "",
        "lat": 34.7550685,
        "lng": 134.3902271
      },
      {
        "id": "牡蠣料理-廿日市市（宮島）",
        "name": "廿日市市（宮島）",
        "prefecture": "広島県",
        "description": "",
        "lat": 34.2732114,
        "lng": 132.3052488
      }
    ]
  },
  {
    "id": "ずんだ餅（食事寄り扱いなら甘味だが店舗で定番）",
    "name": "ずんだ餅（食事寄り扱いなら甘味だが店舗で定番）",
    "imageQuery": "ずんだ餅（食事寄り扱いなら甘味だが店舗で定番）",
    "regions": [
      {
        "id": "ずんだ餅（食事寄り扱いなら甘味だが店舗で定番）-仙台市",
        "name": "仙台市",
        "prefecture": "宮城県",
        "description": "",
        "lat": 38.268195,
        "lng": 140.869418
      }
    ]
  },
  {
    "id": "はらこ飯",
    "name": "はらこ飯",
    "imageQuery": "はらこ飯",
    "regions": [
      {
        "id": "はらこ飯-亘理町",
        "name": "亘理町",
        "prefecture": "宮城県",
        "description": "",
        "lat": 38.0378009,
        "lng": 140.8525347
      }
    ]
  },
  {
    "id": "金華サバ料理",
    "name": "金華サバ料理",
    "imageQuery": "金華サバ料理",
    "regions": [
      {
        "id": "金華サバ料理-石巻市",
        "name": "石巻市",
        "prefecture": "宮城県",
        "description": "",
        "lat": 38.434332,
        "lng": 141.3028682
      }
    ]
  },
  {
    "id": "気仙沼フカヒレ料理",
    "name": "気仙沼フカヒレ料理",
    "imageQuery": "気仙沼フカヒレ料理",
    "regions": [
      {
        "id": "気仙沼フカヒレ料理-気仙沼市",
        "name": "気仙沼市",
        "prefecture": "宮城県",
        "description": "",
        "lat": 38.907641,
        "lng": 141.5703316
      }
    ]
  },
  {
    "id": "塩釜寿司",
    "name": "塩釜寿司",
    "imageQuery": "塩釜寿司",
    "regions": [
      {
        "id": "塩釜寿司-塩竈市",
        "name": "塩竈市",
        "prefecture": "宮城県",
        "description": "",
        "lat": 38.31437,
        "lng": 141.0220607
      }
    ]
  },
  {
    "id": "気仙沼カツオ料理",
    "name": "気仙沼カツオ料理",
    "imageQuery": "気仙沼カツオ料理",
    "regions": [
      {
        "id": "気仙沼カツオ料理-気仙沼市",
        "name": "気仙沼市",
        "prefecture": "宮城県",
        "description": "",
        "lat": 38.907641,
        "lng": 141.5703316
      }
    ]
  },
  {
    "id": "笹かまぼこ",
    "name": "笹かまぼこ",
    "imageQuery": "笹かまぼこ",
    "regions": [
      {
        "id": "笹かまぼこ-仙台市",
        "name": "仙台市",
        "prefecture": "宮城県",
        "description": "",
        "lat": 38.268195,
        "lng": 140.869418
      }
    ]
  },
  {
    "id": "仙台麻婆焼そば",
    "name": "仙台麻婆焼そば",
    "imageQuery": "仙台麻婆焼そば",
    "regions": [
      {
        "id": "仙台麻婆焼そば-仙台市",
        "name": "仙台市",
        "prefecture": "宮城県",
        "description": "",
        "lat": 38.268195,
        "lng": 140.869418
      }
    ]
  },
  {
    "id": "白石温麺（うーめん）",
    "name": "白石温麺（うーめん）",
    "imageQuery": "白石温麺（うーめん）",
    "regions": [
      {
        "id": "白石温麺（うーめん）-白石市",
        "name": "白石市",
        "prefecture": "宮城県",
        "description": "",
        "lat": 38.0022622,
        "lng": 140.6199545
      }
    ]
  },
  {
    "id": "きりたんぽ鍋",
    "name": "きりたんぽ鍋",
    "imageQuery": "きりたんぽ鍋",
    "regions": [
      {
        "id": "きりたんぽ鍋-大館市",
        "name": "大館市",
        "prefecture": "秋田県",
        "description": "",
        "lat": 40.2714146,
        "lng": 140.5641387
      }
    ]
  },
  {
    "id": "稲庭うどん",
    "name": "稲庭うどん",
    "imageQuery": "稲庭うどん",
    "regions": [
      {
        "id": "稲庭うどん-湯沢市",
        "name": "湯沢市",
        "prefecture": "秋田県",
        "description": "",
        "lat": 39.1643877,
        "lng": 140.4957009
      }
    ]
  },
  {
    "id": "横手やきそば",
    "name": "横手やきそば",
    "imageQuery": "横手やきそば",
    "regions": [
      {
        "id": "横手やきそば-横手市",
        "name": "横手市",
        "prefecture": "秋田県",
        "description": "",
        "lat": 39.3138283,
        "lng": 140.5665878
      }
    ]
  },
  {
    "id": "比内地鶏料理",
    "name": "比内地鶏料理",
    "imageQuery": "比内地鶏料理",
    "regions": [
      {
        "id": "比内地鶏料理-大館市",
        "name": "大館市",
        "prefecture": "秋田県",
        "description": "",
        "lat": 40.2714146,
        "lng": 140.5641387
      }
    ]
  },
  {
    "id": "横手ホルモン",
    "name": "横手ホルモン",
    "imageQuery": "横手ホルモン",
    "regions": [
      {
        "id": "横手ホルモン-横手市",
        "name": "横手市",
        "prefecture": "秋田県",
        "description": "",
        "lat": 39.3138283,
        "lng": 140.5665878
      }
    ]
  },
  {
    "id": "十文字ラーメン",
    "name": "十文字ラーメン",
    "imageQuery": "十文字ラーメン",
    "regions": [
      {
        "id": "十文字ラーメン-横手市",
        "name": "横手市",
        "prefecture": "秋田県",
        "description": "",
        "lat": 39.3138283,
        "lng": 140.5665878
      }
    ]
  },
  {
    "id": "男鹿ハタハタ料理",
    "name": "男鹿ハタハタ料理",
    "imageQuery": "男鹿ハタハタ料理",
    "regions": [
      {
        "id": "男鹿ハタハタ料理-男鹿市",
        "name": "男鹿市",
        "prefecture": "秋田県",
        "description": "",
        "lat": 39.8869086,
        "lng": 139.8476079
      }
    ]
  },
  {
    "id": "しょっつる鍋",
    "name": "しょっつる鍋",
    "imageQuery": "しょっつる鍋",
    "regions": [
      {
        "id": "しょっつる鍋-男鹿市",
        "name": "男鹿市",
        "prefecture": "秋田県",
        "description": "",
        "lat": 39.8869086,
        "lng": 139.8476079
      }
    ]
  },
  {
    "id": "芋煮",
    "name": "芋煮",
    "imageQuery": "芋煮",
    "regions": [
      {
        "id": "芋煮-山形市",
        "name": "山形市",
        "prefecture": "山形県",
        "description": "",
        "lat": 38.2459634,
        "lng": 140.3350967
      }
    ]
  },
  {
    "id": "米沢牛料理",
    "name": "米沢牛料理",
    "imageQuery": "米沢牛料理",
    "regions": [
      {
        "id": "米沢牛料理-米沢市",
        "name": "米沢市",
        "prefecture": "山形県",
        "description": "",
        "lat": 37.9223201,
        "lng": 140.1167445
      }
    ]
  },
  {
    "id": "冷やしラーメン",
    "name": "冷やしラーメン",
    "imageQuery": "冷やしラーメン",
    "regions": [
      {
        "id": "冷やしラーメン-山形市",
        "name": "山形市",
        "prefecture": "山形県",
        "description": "",
        "lat": 38.2459634,
        "lng": 140.3350967
      }
    ]
  },
  {
    "id": "どんどん焼き",
    "name": "どんどん焼き",
    "imageQuery": "どんどん焼き",
    "regions": [
      {
        "id": "どんどん焼き-山形市",
        "name": "山形市",
        "prefecture": "山形県",
        "description": "",
        "lat": 38.2459634,
        "lng": 140.3350967
      }
    ]
  },
  {
    "id": "酒田ワンタンメン",
    "name": "酒田ワンタンメン",
    "imageQuery": "酒田ワンタンメン",
    "regions": [
      {
        "id": "酒田ワンタンメン-酒田市",
        "name": "酒田市",
        "prefecture": "山形県",
        "description": "",
        "lat": 38.9147809,
        "lng": 139.8366435
      }
    ]
  },
  {
    "id": "庄内浜天然岩牡蠣料理",
    "name": "庄内浜天然岩牡蠣料理",
    "imageQuery": "庄内浜天然岩牡蠣料理",
    "regions": [
      {
        "id": "庄内浜天然岩牡蠣料理-鶴岡市",
        "name": "鶴岡市",
        "prefecture": "山形県",
        "description": "",
        "lat": 38.7271972,
        "lng": 139.8267422
      }
    ]
  },
  {
    "id": "赤湯からみそラーメン",
    "name": "赤湯からみそラーメン",
    "imageQuery": "赤湯からみそラーメン",
    "regions": [
      {
        "id": "赤湯からみそラーメン-南陽市",
        "name": "南陽市",
        "prefecture": "山形県",
        "description": "",
        "lat": 32.9907299,
        "lng": 112.52851
      }
    ]
  },
  {
    "id": "米沢牛コロッケ（食べ歩き強）",
    "name": "米沢牛コロッケ（食べ歩き強）",
    "imageQuery": "米沢牛コロッケ（食べ歩き強）",
    "regions": [
      {
        "id": "米沢牛コロッケ（食べ歩き強）-米沢市",
        "name": "米沢市",
        "prefecture": "山形県",
        "description": "",
        "lat": 37.9223201,
        "lng": 140.1167445
      }
    ]
  },
  {
    "id": "玉こんにゃく",
    "name": "玉こんにゃく",
    "imageQuery": "玉こんにゃく",
    "regions": [
      {
        "id": "玉こんにゃく-山形市",
        "name": "山形市",
        "prefecture": "山形県",
        "description": "",
        "lat": 38.2459634,
        "lng": 140.3350967
      }
    ]
  },
  {
    "id": "鳥中華",
    "name": "鳥中華",
    "imageQuery": "鳥中華",
    "regions": [
      {
        "id": "鳥中華-天童市",
        "name": "天童市",
        "prefecture": "山形県",
        "description": "",
        "lat": 38.3625629,
        "lng": 140.3770219
      }
    ]
  },
  {
    "id": "喜多方ラーメン",
    "name": "喜多方ラーメン",
    "imageQuery": "喜多方ラーメン",
    "regions": [
      {
        "id": "喜多方ラーメン-喜多方市",
        "name": "喜多方市",
        "prefecture": "福島県",
        "description": "",
        "lat": 37.6513048,
        "lng": 139.8746281
      }
    ]
  },
  {
    "id": "ソースカツ丼",
    "name": "ソースカツ丼",
    "imageQuery": "ソースカツ丼",
    "regions": [
      {
        "id": "ソースカツ丼-会津若松市",
        "name": "会津若松市",
        "prefecture": "福島県",
        "description": "",
        "lat": 37.4899827,
        "lng": 139.9277486
      },
      {
        "id": "ソースカツ丼-福井市",
        "name": "福井市",
        "prefecture": "福井県",
        "description": "",
        "lat": 36.0641386,
        "lng": 136.219623
      }
    ]
  },
  {
    "id": "円盤餃子",
    "name": "円盤餃子",
    "imageQuery": "円盤餃子",
    "regions": [
      {
        "id": "円盤餃子-福島市",
        "name": "福島市",
        "prefecture": "福島県",
        "description": "",
        "lat": 37.7607991,
        "lng": 140.4747856
      }
    ]
  },
  {
    "id": "なみえ焼きそば",
    "name": "なみえ焼きそば",
    "imageQuery": "なみえ焼きそば",
    "regions": [
      {
        "id": "なみえ焼きそば-浪江町",
        "name": "浪江町",
        "prefecture": "福島県",
        "description": "",
        "lat": 37.4954732,
        "lng": 141.0017195
      }
    ]
  },
  {
    "id": "白河ラーメン",
    "name": "白河ラーメン",
    "imageQuery": "白河ラーメン",
    "regions": [
      {
        "id": "白河ラーメン-白河市",
        "name": "白河市",
        "prefecture": "福島県",
        "description": "",
        "lat": 37.1266145,
        "lng": 140.211014
      }
    ]
  },
  {
    "id": "会津ラーメン",
    "name": "会津ラーメン",
    "imageQuery": "会津ラーメン",
    "regions": [
      {
        "id": "会津ラーメン-会津若松市",
        "name": "会津若松市",
        "prefecture": "福島県",
        "description": "",
        "lat": 37.4899827,
        "lng": 139.9277486
      }
    ]
  },
  {
    "id": "郡山ブラック",
    "name": "郡山ブラック",
    "imageQuery": "郡山ブラック",
    "regions": [
      {
        "id": "郡山ブラック-郡山市",
        "name": "郡山市",
        "prefecture": "福島県",
        "description": "",
        "lat": 37.4004775999999,
        "lng": 140.3596822
      }
    ]
  },
  {
    "id": "会津こづゆ",
    "name": "会津こづゆ",
    "imageQuery": "会津こづゆ",
    "regions": [
      {
        "id": "会津こづゆ-会津若松市",
        "name": "会津若松市",
        "prefecture": "福島県",
        "description": "",
        "lat": 37.4899827,
        "lng": 139.9277486
      }
    ]
  },
  {
    "id": "いかにんじん",
    "name": "いかにんじん",
    "imageQuery": "いかにんじん",
    "regions": [
      {
        "id": "いかにんじん-福島市",
        "name": "福島市",
        "prefecture": "福島県",
        "description": "",
        "lat": 37.7607991,
        "lng": 140.4747856
      }
    ]
  },
  {
    "id": "会津馬刺し",
    "name": "会津馬刺し",
    "imageQuery": "会津馬刺し",
    "regions": [
      {
        "id": "会津馬刺し-会津若松市",
        "name": "会津若松市",
        "prefecture": "福島県",
        "description": "",
        "lat": 37.4899827,
        "lng": 139.9277486
      }
    ]
  },
  {
    "id": "あんこう鍋",
    "name": "あんこう鍋",
    "imageQuery": "あんこう鍋",
    "regions": [
      {
        "id": "あんこう鍋-北茨城市",
        "name": "北茨城市",
        "prefecture": "茨城県",
        "description": "",
        "lat": 36.801915,
        "lng": 140.7510448
      },
      {
        "id": "あんこう鍋-大洗町",
        "name": "大洗町",
        "prefecture": "茨城県",
        "description": "",
        "lat": 36.3133985,
        "lng": 140.5748789
      }
    ]
  },
  {
    "id": "常陸牛料理",
    "name": "常陸牛料理",
    "imageQuery": "常陸牛料理",
    "regions": [
      {
        "id": "常陸牛料理-水戸市",
        "name": "水戸市",
        "prefecture": "茨城県",
        "description": "",
        "lat": 36.3658764,
        "lng": 140.4713723
      }
    ]
  },
  {
    "id": "納豆料理",
    "name": "納豆料理",
    "imageQuery": "納豆料理",
    "regions": [
      {
        "id": "納豆料理-水戸市",
        "name": "水戸市",
        "prefecture": "茨城県",
        "description": "",
        "lat": 36.3658764,
        "lng": 140.4713723
      }
    ]
  },
  {
    "id": "常陸秋そば",
    "name": "常陸秋そば",
    "imageQuery": "常陸秋そば",
    "regions": [
      {
        "id": "常陸秋そば-常陸太田市",
        "name": "常陸太田市",
        "prefecture": "茨城県",
        "description": "",
        "lat": 36.5382486,
        "lng": 140.5307574
      }
    ]
  },
  {
    "id": "しらす丼",
    "name": "しらす丼",
    "imageQuery": "しらす丼",
    "regions": [
      {
        "id": "しらす丼-大洗町",
        "name": "大洗町",
        "prefecture": "茨城県",
        "description": "",
        "lat": 36.3133985,
        "lng": 140.5748789
      },
      {
        "id": "しらす丼-藤沢市（江の島）",
        "name": "藤沢市（江の島）",
        "prefecture": "神奈川県",
        "description": "",
        "lat": 35.2990992,
        "lng": 139.4809269
      },
      {
        "id": "しらす丼-和歌山市（加太）",
        "name": "和歌山市（加太）",
        "prefecture": "和歌山県",
        "description": "",
        "lat": 34.2748394,
        "lng": 135.0798131
      }
    ]
  },
  {
    "id": "鹿島灘はまぐり料理",
    "name": "鹿島灘はまぐり料理",
    "imageQuery": "鹿島灘はまぐり料理",
    "regions": [
      {
        "id": "鹿島灘はまぐり料理-鹿嶋市",
        "name": "鹿嶋市",
        "prefecture": "茨城県",
        "description": "",
        "lat": 35.9656835,
        "lng": 140.6447937
      }
    ]
  },
  {
    "id": "スタミナラーメン",
    "name": "スタミナラーメン",
    "imageQuery": "スタミナラーメン",
    "regions": [
      {
        "id": "スタミナラーメン-ひたちなか市",
        "name": "ひたちなか市",
        "prefecture": "茨城県",
        "description": "",
        "lat": 36.3966506,
        "lng": 140.5347934
      }
    ]
  },
  {
    "id": "しらすピザ",
    "name": "しらすピザ",
    "imageQuery": "しらすピザ",
    "regions": [
      {
        "id": "しらすピザ-大洗町",
        "name": "大洗町",
        "prefecture": "茨城県",
        "description": "",
        "lat": 36.3133985,
        "lng": 140.5748789
      }
    ]
  },
  {
    "id": "奥久慈しゃも料理",
    "name": "奥久慈しゃも料理",
    "imageQuery": "奥久慈しゃも料理",
    "regions": [
      {
        "id": "奥久慈しゃも料理-大子町",
        "name": "大子町",
        "prefecture": "茨城県",
        "description": "",
        "lat": 36.7680855,
        "lng": 140.3552161
      }
    ]
  },
  {
    "id": "宇都宮餃子",
    "name": "宇都宮餃子",
    "imageQuery": "宇都宮餃子",
    "regions": [
      {
        "id": "宇都宮餃子-宇都宮市",
        "name": "宇都宮市",
        "prefecture": "栃木県",
        "description": "",
        "lat": 36.5550745,
        "lng": 139.8826209
      }
    ]
  },
  {
    "id": "宇都宮焼きそば",
    "name": "宇都宮焼きそば",
    "imageQuery": "宇都宮焼きそば",
    "regions": [
      {
        "id": "宇都宮焼きそば-宇都宮市",
        "name": "宇都宮市",
        "prefecture": "栃木県",
        "description": "",
        "lat": 36.5550745,
        "lng": 139.8826209
      }
    ]
  },
  {
    "id": "佐野ラーメン",
    "name": "佐野ラーメン",
    "imageQuery": "佐野ラーメン",
    "regions": [
      {
        "id": "佐野ラーメン-佐野市",
        "name": "佐野市",
        "prefecture": "栃木県",
        "description": "",
        "lat": 36.3143908,
        "lng": 139.5783915
      }
    ]
  },
  {
    "id": "レモン牛乳",
    "name": "レモン牛乳",
    "imageQuery": "レモン牛乳",
    "regions": [
      {
        "id": "レモン牛乳-宇都宮市",
        "name": "宇都宮市",
        "prefecture": "栃木県",
        "description": "",
        "lat": 36.5550745,
        "lng": 139.8826209
      }
    ]
  },
  {
    "id": "とちぎ和牛料理",
    "name": "とちぎ和牛料理",
    "imageQuery": "とちぎ和牛料理",
    "regions": [
      {
        "id": "とちぎ和牛料理-那須塩原市",
        "name": "那須塩原市",
        "prefecture": "栃木県",
        "description": "",
        "lat": 36.9616857,
        "lng": 140.0460727
      }
    ]
  },
  {
    "id": "那須高原ステーキ",
    "name": "那須高原ステーキ",
    "imageQuery": "那須高原ステーキ",
    "regions": [
      {
        "id": "那須高原ステーキ-那須町",
        "name": "那須町",
        "prefecture": "栃木県",
        "description": "",
        "lat": 37.0197825,
        "lng": 140.1209869
      }
    ]
  },
  {
    "id": "那須高原チーズ料理",
    "name": "那須高原チーズ料理",
    "imageQuery": "那須高原チーズ料理",
    "regions": [
      {
        "id": "那須高原チーズ料理-那須町",
        "name": "那須町",
        "prefecture": "栃木県",
        "description": "",
        "lat": 37.0197825,
        "lng": 140.1209869
      }
    ]
  },
  {
    "id": "日光ゆば料理",
    "name": "日光ゆば料理",
    "imageQuery": "日光ゆば料理",
    "regions": [
      {
        "id": "日光ゆば料理-日光市",
        "name": "日光市",
        "prefecture": "栃木県",
        "description": "",
        "lat": 36.7198987,
        "lng": 139.6982361
      }
    ]
  },
  {
    "id": "水沢うどん",
    "name": "水沢うどん",
    "imageQuery": "水沢うどん",
    "regions": [
      {
        "id": "水沢うどん-渋川市（伊香保）",
        "name": "渋川市（伊香保）",
        "prefecture": "群馬県",
        "description": "",
        "lat": 36.4981947,
        "lng": 138.9165884
      }
    ]
  },
  {
    "id": "焼きまんじゅう",
    "name": "焼きまんじゅう",
    "imageQuery": "焼きまんじゅう",
    "regions": [
      {
        "id": "焼きまんじゅう-前橋市",
        "name": "前橋市",
        "prefecture": "群馬県",
        "description": "",
        "lat": 36.3894669,
        "lng": 139.0634134
      }
    ]
  },
  {
    "id": "高崎パスタ",
    "name": "高崎パスタ",
    "imageQuery": "高崎パスタ",
    "regions": [
      {
        "id": "高崎パスタ-高崎市",
        "name": "高崎市",
        "prefecture": "群馬県",
        "description": "",
        "lat": 36.3220692,
        "lng": 139.0033576
      }
    ]
  },
  {
    "id": "草津温泉湯もみ料理系（温泉饅頭は除外）",
    "name": "草津温泉湯もみ料理系（温泉饅頭は除外）",
    "imageQuery": "草津温泉湯もみ料理系（温泉饅頭は除外）",
    "regions": [
      {
        "id": "草津温泉湯もみ料理系（温泉饅頭は除外）-草津町",
        "name": "草津町",
        "prefecture": "群馬県",
        "description": "",
        "lat": 36.6207181,
        "lng": 138.5960945
      }
    ]
  },
  {
    "id": "上州もつ煮",
    "name": "上州もつ煮",
    "imageQuery": "上州もつ煮",
    "regions": [
      {
        "id": "上州もつ煮-渋川市（伊香保）",
        "name": "渋川市（伊香保）",
        "prefecture": "群馬県",
        "description": "",
        "lat": 36.4981947,
        "lng": 138.9165884
      }
    ]
  },
  {
    "id": "焼きうどん",
    "name": "焼きうどん",
    "imageQuery": "焼きうどん",
    "regions": [
      {
        "id": "焼きうどん-太田市",
        "name": "太田市",
        "prefecture": "群馬県",
        "description": "",
        "lat": 36.2909373,
        "lng": 139.3760432
      },
      {
        "id": "焼きうどん-北九州市（小倉北区）",
        "name": "北九州市（小倉北区）",
        "prefecture": "福岡県",
        "description": "",
        "lat": 33.8775082,
        "lng": 130.8878658
      }
    ]
  },
  {
    "id": "上州牛料理",
    "name": "上州牛料理",
    "imageQuery": "上州牛料理",
    "regions": [
      {
        "id": "上州牛料理-前橋市",
        "name": "前橋市",
        "prefecture": "群馬県",
        "description": "",
        "lat": 36.3894669,
        "lng": 139.0634134
      }
    ]
  },
  {
    "id": "武蔵野うどん",
    "name": "武蔵野うどん",
    "imageQuery": "武蔵野うどん",
    "regions": [
      {
        "id": "武蔵野うどん-所沢市",
        "name": "所沢市",
        "prefecture": "埼玉県",
        "description": "",
        "lat": 35.799423,
        "lng": 139.4687112
      }
    ]
  },
  {
    "id": "ゼリーフライ",
    "name": "ゼリーフライ",
    "imageQuery": "ゼリーフライ",
    "regions": [
      {
        "id": "ゼリーフライ-行田市",
        "name": "行田市",
        "prefecture": "埼玉県",
        "description": "",
        "lat": 36.13905,
        "lng": 139.4559326
      }
    ]
  },
  {
    "id": "味噌ポテト",
    "name": "味噌ポテト",
    "imageQuery": "味噌ポテト",
    "regions": [
      {
        "id": "味噌ポテト-秩父市",
        "name": "秩父市",
        "prefecture": "埼玉県",
        "description": "",
        "lat": 35.9916443,
        "lng": 139.0855869
      }
    ]
  },
  {
    "id": "豚みそ丼",
    "name": "豚みそ丼",
    "imageQuery": "豚みそ丼",
    "regions": [
      {
        "id": "豚みそ丼-秩父市",
        "name": "秩父市",
        "prefecture": "埼玉県",
        "description": "",
        "lat": 35.9916443,
        "lng": 139.0855869
      }
    ]
  },
  {
    "id": "川越太麺焼きそば",
    "name": "川越太麺焼きそば",
    "imageQuery": "川越太麺焼きそば",
    "regions": [
      {
        "id": "川越太麺焼きそば-川越市",
        "name": "川越市",
        "prefecture": "埼玉県",
        "description": "",
        "lat": 35.9251335,
        "lng": 139.4858042
      }
    ]
  },
  {
    "id": "行田フライ",
    "name": "行田フライ",
    "imageQuery": "行田フライ",
    "regions": [
      {
        "id": "行田フライ-行田市",
        "name": "行田市",
        "prefecture": "埼玉県",
        "description": "",
        "lat": 36.13905,
        "lng": 139.4559326
      }
    ]
  },
  {
    "id": "草加せんべい",
    "name": "草加せんべい",
    "imageQuery": "草加せんべい",
    "regions": [
      {
        "id": "草加せんべい-草加市",
        "name": "草加市",
        "prefecture": "埼玉県",
        "description": "",
        "lat": 35.8254078,
        "lng": 139.805378
      }
    ]
  },
  {
    "id": "川越うなぎ",
    "name": "川越うなぎ",
    "imageQuery": "川越うなぎ",
    "regions": [
      {
        "id": "川越うなぎ-川越市",
        "name": "川越市",
        "prefecture": "埼玉県",
        "description": "",
        "lat": 35.9251335,
        "lng": 139.4858042
      }
    ]
  },
  {
    "id": "勝浦タンタンメン",
    "name": "勝浦タンタンメン",
    "imageQuery": "勝浦タンタンメン",
    "regions": [
      {
        "id": "勝浦タンタンメン-勝浦市",
        "name": "勝浦市",
        "prefecture": "千葉県",
        "description": "",
        "lat": 35.1522272,
        "lng": 140.3208833
      }
    ]
  },
  {
    "id": "なめろう",
    "name": "なめろう",
    "imageQuery": "なめろう",
    "regions": [
      {
        "id": "なめろう-館山市",
        "name": "館山市",
        "prefecture": "千葉県",
        "description": "",
        "lat": 34.9965461,
        "lng": 139.870044
      }
    ]
  },
  {
    "id": "さんが焼き",
    "name": "さんが焼き",
    "imageQuery": "さんが焼き",
    "regions": [
      {
        "id": "さんが焼き-南房総市",
        "name": "南房総市",
        "prefecture": "千葉県",
        "description": "",
        "lat": 35.042651,
        "lng": 139.839879
      }
    ]
  },
  {
    "id": "伊勢海老料理",
    "name": "伊勢海老料理",
    "imageQuery": "伊勢海老料理",
    "regions": [
      {
        "id": "伊勢海老料理-南房総市",
        "name": "南房総市",
        "prefecture": "千葉県",
        "description": "",
        "lat": 35.042651,
        "lng": 139.839879
      },
      {
        "id": "伊勢海老料理-志摩市",
        "name": "志摩市",
        "prefecture": "三重県",
        "description": "",
        "lat": 34.3281783,
        "lng": 136.8296341
      }
    ]
  },
  {
    "id": "金目鯛料理",
    "name": "金目鯛料理",
    "imageQuery": "金目鯛料理",
    "regions": [
      {
        "id": "金目鯛料理-鴨川市",
        "name": "鴨川市",
        "prefecture": "千葉県",
        "description": "",
        "lat": 35.1133206,
        "lng": 140.0990322
      },
      {
        "id": "金目鯛料理-下田市",
        "name": "下田市",
        "prefecture": "静岡県",
        "description": "",
        "lat": 34.6796171,
        "lng": 138.9451459
      }
    ]
  },
  {
    "id": "勝浦朝市海鮮",
    "name": "勝浦朝市海鮮",
    "imageQuery": "勝浦朝市海鮮",
    "regions": [
      {
        "id": "勝浦朝市海鮮-勝浦市",
        "name": "勝浦市",
        "prefecture": "千葉県",
        "description": "",
        "lat": 35.1522272,
        "lng": 140.3208833
      }
    ]
  },
  {
    "id": "九十九里はまぐり料理",
    "name": "九十九里はまぐり料理",
    "imageQuery": "九十九里はまぐり料理",
    "regions": [
      {
        "id": "九十九里はまぐり料理-九十九里町",
        "name": "九十九里町",
        "prefecture": "千葉県",
        "description": "",
        "lat": 35.5348912,
        "lng": 140.4396558
      }
    ]
  },
  {
    "id": "竹岡式ラーメン",
    "name": "竹岡式ラーメン",
    "imageQuery": "竹岡式ラーメン",
    "regions": [
      {
        "id": "竹岡式ラーメン-富津市",
        "name": "富津市",
        "prefecture": "千葉県",
        "description": "",
        "lat": 35.3040598,
        "lng": 139.8571263
      }
    ]
  },
  {
    "id": "アリランラーメン",
    "name": "アリランラーメン",
    "imageQuery": "アリランラーメン",
    "regions": [
      {
        "id": "アリランラーメン-長南町",
        "name": "長南町",
        "prefecture": "千葉県",
        "description": "",
        "lat": 35.3864095,
        "lng": 140.2371693
      }
    ]
  },
  {
    "id": "銚子つりきんめ丼",
    "name": "銚子つりきんめ丼",
    "imageQuery": "銚子つりきんめ丼",
    "regions": [
      {
        "id": "銚子つりきんめ丼-銚子市",
        "name": "銚子市",
        "prefecture": "千葉県",
        "description": "",
        "lat": 35.7340035,
        "lng": 140.8267464
      }
    ]
  },
  {
    "id": "房総アジフライ",
    "name": "房総アジフライ",
    "imageQuery": "房総アジフライ",
    "regions": [
      {
        "id": "房総アジフライ-館山市",
        "name": "館山市",
        "prefecture": "千葉県",
        "description": "",
        "lat": 34.9965461,
        "lng": 139.870044
      }
    ]
  },
  {
    "id": "もんじゃ焼き",
    "name": "もんじゃ焼き",
    "imageQuery": "もんじゃ焼き",
    "regions": [
      {
        "id": "もんじゃ焼き-中央区（月島）",
        "name": "中央区（月島）",
        "prefecture": "東京都",
        "description": "",
        "lat": 35.6635905,
        "lng": 139.7818227
      }
    ]
  },
  {
    "id": "深川めし",
    "name": "深川めし",
    "imageQuery": "深川めし",
    "regions": [
      {
        "id": "深川めし-江東区（深川）",
        "name": "江東区（深川）",
        "prefecture": "東京都",
        "description": "",
        "lat": 35.6763054,
        "lng": 139.7978028
      }
    ]
  },
  {
    "id": "東京ラーメン",
    "name": "東京ラーメン",
    "imageQuery": "東京ラーメン",
    "regions": [
      {
        "id": "東京ラーメン-中央区（日本橋）",
        "name": "中央区（日本橋）",
        "prefecture": "東京都",
        "description": "",
        "lat": 35.6811836,
        "lng": 139.7741538
      }
    ]
  },
  {
    "id": "江戸前寿司",
    "name": "江戸前寿司",
    "imageQuery": "江戸前寿司",
    "regions": [
      {
        "id": "江戸前寿司-中央区（銀座）",
        "name": "中央区（銀座）",
        "prefecture": "東京都",
        "description": "",
        "lat": 35.6712228,
        "lng": 139.7664859
      }
    ]
  },
  {
    "id": "天ぷら",
    "name": "天ぷら",
    "imageQuery": "天ぷら",
    "regions": [
      {
        "id": "天ぷら-台東区（浅草）",
        "name": "台東区（浅草）",
        "prefecture": "東京都",
        "description": "",
        "lat": 35.7185858,
        "lng": 139.7958849
      }
    ]
  },
  {
    "id": "深川あさり料理",
    "name": "深川あさり料理",
    "imageQuery": "深川あさり料理",
    "regions": [
      {
        "id": "深川あさり料理-江東区",
        "name": "江東区",
        "prefecture": "東京都",
        "description": "",
        "lat": 35.6727748,
        "lng": 139.8174521
      }
    ]
  },
  {
    "id": "神保町ラーメン",
    "name": "神保町ラーメン",
    "imageQuery": "神保町ラーメン",
    "regions": [
      {
        "id": "神保町ラーメン-千代田区",
        "name": "千代田区",
        "prefecture": "東京都",
        "description": "",
        "lat": 35.6940309,
        "lng": 139.7537719
      }
    ]
  },
  {
    "id": "二郎ラーメン",
    "name": "二郎ラーメン",
    "imageQuery": "二郎ラーメン",
    "regions": [
      {
        "id": "二郎ラーメン-港区（三田）",
        "name": "港区（三田）",
        "prefecture": "東京都",
        "description": "",
        "lat": 35.647202,
        "lng": 139.7409333
      }
    ]
  },
  {
    "id": "深大寺そば",
    "name": "深大寺そば",
    "imageQuery": "深大寺そば",
    "regions": [
      {
        "id": "深大寺そば-調布市",
        "name": "調布市",
        "prefecture": "東京都",
        "description": "",
        "lat": 35.6506111,
        "lng": 139.5407215
      }
    ]
  },
  {
    "id": "八王子ラーメン",
    "name": "八王子ラーメン",
    "imageQuery": "八王子ラーメン",
    "regions": [
      {
        "id": "八王子ラーメン-八王子市",
        "name": "八王子市",
        "prefecture": "東京都",
        "description": "",
        "lat": 35.6664381,
        "lng": 139.3160068
      }
    ]
  },
  {
    "id": "神田カレー",
    "name": "神田カレー",
    "imageQuery": "神田カレー",
    "regions": [
      {
        "id": "神田カレー-千代田区（神田）",
        "name": "千代田区（神田）",
        "prefecture": "東京都",
        "description": "",
        "lat": 35.6954378,
        "lng": 139.7675549
      }
    ]
  },
  {
    "id": "築地海鮮食べ歩き",
    "name": "築地海鮮食べ歩き",
    "imageQuery": "築地海鮮食べ歩き",
    "regions": [
      {
        "id": "築地海鮮食べ歩き-中央区（築地）",
        "name": "中央区（築地）",
        "prefecture": "東京都",
        "description": "",
        "lat": 35.6640869,
        "lng": 139.7715977
      }
    ]
  },
  {
    "id": "下町天丼",
    "name": "下町天丼",
    "imageQuery": "下町天丼",
    "regions": [
      {
        "id": "下町天丼-台東区（浅草）",
        "name": "台東区（浅草）",
        "prefecture": "東京都",
        "description": "",
        "lat": 35.7185858,
        "lng": 139.7958849
      }
    ]
  },
  {
    "id": "家系ラーメン",
    "name": "家系ラーメン",
    "imageQuery": "家系ラーメン",
    "regions": [
      {
        "id": "家系ラーメン-横浜市",
        "name": "横浜市",
        "prefecture": "神奈川県",
        "description": "",
        "lat": 35.4436739,
        "lng": 139.6379639
      }
    ]
  },
  {
    "id": "サンマーメン",
    "name": "サンマーメン",
    "imageQuery": "サンマーメン",
    "regions": [
      {
        "id": "サンマーメン-横浜市",
        "name": "横浜市",
        "prefecture": "神奈川県",
        "description": "",
        "lat": 35.4436739,
        "lng": 139.6379639
      }
    ]
  },
  {
    "id": "三崎まぐろ",
    "name": "三崎まぐろ",
    "imageQuery": "三崎まぐろ",
    "regions": [
      {
        "id": "三崎まぐろ-三浦市",
        "name": "三浦市",
        "prefecture": "神奈川県",
        "description": "",
        "lat": 35.1441972,
        "lng": 139.6207584
      }
    ]
  },
  {
    "id": "海軍カレー",
    "name": "海軍カレー",
    "imageQuery": "海軍カレー",
    "regions": [
      {
        "id": "海軍カレー-横須賀市",
        "name": "横須賀市",
        "prefecture": "神奈川県",
        "description": "",
        "lat": 35.281498,
        "lng": 139.6721655
      }
    ]
  },
  {
    "id": "湘南しらす丼",
    "name": "湘南しらす丼",
    "imageQuery": "湘南しらす丼",
    "regions": [
      {
        "id": "湘南しらす丼-藤沢市",
        "name": "藤沢市",
        "prefecture": "神奈川県",
        "description": "",
        "lat": 35.3391654,
        "lng": 139.49014
      }
    ]
  },
  {
    "id": "箱根湯葉料理",
    "name": "箱根湯葉料理",
    "imageQuery": "箱根湯葉料理",
    "regions": [
      {
        "id": "箱根湯葉料理-箱根町",
        "name": "箱根町",
        "prefecture": "神奈川県",
        "description": "",
        "lat": 35.2337691,
        "lng": 139.1088454
      }
    ]
  },
  {
    "id": "小田原ラーメン",
    "name": "小田原ラーメン",
    "imageQuery": "小田原ラーメン",
    "regions": [
      {
        "id": "小田原ラーメン-小田原市",
        "name": "小田原市",
        "prefecture": "神奈川県",
        "description": "",
        "lat": 35.2648307,
        "lng": 139.1523086
      }
    ]
  },
  {
    "id": "湯河原担々やきそば",
    "name": "湯河原担々やきそば",
    "imageQuery": "湯河原担々やきそば",
    "regions": [
      {
        "id": "湯河原担々やきそば-湯河原町",
        "name": "湯河原町",
        "prefecture": "神奈川県",
        "description": "",
        "lat": 35.1478719,
        "lng": 139.1083302
      }
    ]
  },
  {
    "id": "横浜ナポリタン",
    "name": "横浜ナポリタン",
    "imageQuery": "横浜ナポリタン",
    "regions": [
      {
        "id": "横浜ナポリタン-横浜市",
        "name": "横浜市",
        "prefecture": "神奈川県",
        "description": "",
        "lat": 35.4436739,
        "lng": 139.6379639
      }
    ]
  },
  {
    "id": "鎌倉しらすピザ",
    "name": "鎌倉しらすピザ",
    "imageQuery": "鎌倉しらすピザ",
    "regions": [
      {
        "id": "鎌倉しらすピザ-鎌倉市",
        "name": "鎌倉市",
        "prefecture": "神奈川県",
        "description": "",
        "lat": 35.3192128,
        "lng": 139.5466731
      }
    ]
  },
  {
    "id": "鎌倉しらす丼",
    "name": "鎌倉しらす丼",
    "imageQuery": "鎌倉しらす丼",
    "regions": [
      {
        "id": "鎌倉しらす丼-鎌倉市",
        "name": "鎌倉市",
        "prefecture": "神奈川県",
        "description": "",
        "lat": 35.3192128,
        "lng": 139.5466731
      }
    ]
  },
  {
    "id": "へぎそば",
    "name": "へぎそば",
    "imageQuery": "へぎそば",
    "regions": [
      {
        "id": "へぎそば-十日町市",
        "name": "十日町市",
        "prefecture": "新潟県",
        "description": "",
        "lat": 37.1282799,
        "lng": 138.7553633
      },
      {
        "id": "へぎそば-小千谷市",
        "name": "小千谷市",
        "prefecture": "新潟県",
        "description": "",
        "lat": 37.3143204,
        "lng": 138.7951216
      }
    ]
  },
  {
    "id": "タレかつ丼",
    "name": "タレかつ丼",
    "imageQuery": "タレかつ丼",
    "regions": [
      {
        "id": "タレかつ丼-新潟市",
        "name": "新潟市",
        "prefecture": "新潟県",
        "description": "",
        "lat": 37.9185345,
        "lng": 139.069444
      }
    ]
  },
  {
    "id": "のっぺ",
    "name": "のっぺ",
    "imageQuery": "のっぺ",
    "regions": [
      {
        "id": "のっぺ-新潟市",
        "name": "新潟市",
        "prefecture": "新潟県",
        "description": "",
        "lat": 37.9185345,
        "lng": 139.069444
      }
    ]
  },
  {
    "id": "南蛮エビ丼",
    "name": "南蛮エビ丼",
    "imageQuery": "南蛮エビ丼",
    "regions": [
      {
        "id": "南蛮エビ丼-新潟市",
        "name": "新潟市",
        "prefecture": "新潟県",
        "description": "",
        "lat": 37.9185345,
        "lng": 139.069444
      }
    ]
  },
  {
    "id": "村上牛料理",
    "name": "村上牛料理",
    "imageQuery": "村上牛料理",
    "regions": [
      {
        "id": "村上牛料理-村上市",
        "name": "村上市",
        "prefecture": "新潟県",
        "description": "",
        "lat": 38.2240045,
        "lng": 139.480171
      }
    ]
  },
  {
    "id": "糸魚川ブラック焼きそば",
    "name": "糸魚川ブラック焼きそば",
    "imageQuery": "糸魚川ブラック焼きそば",
    "regions": [
      {
        "id": "糸魚川ブラック焼きそば-糸魚川市",
        "name": "糸魚川市",
        "prefecture": "新潟県",
        "description": "",
        "lat": 37.0390497,
        "lng": 137.862814
      }
    ]
  },
  {
    "id": "三条カレーラーメン",
    "name": "三条カレーラーメン",
    "imageQuery": "三条カレーラーメン",
    "regions": [
      {
        "id": "三条カレーラーメン-三条市",
        "name": "三条市",
        "prefecture": "新潟県",
        "description": "",
        "lat": 37.6365293,
        "lng": 138.9616061
      }
    ]
  },
  {
    "id": "上越ラーメン",
    "name": "上越ラーメン",
    "imageQuery": "上越ラーメン",
    "regions": [
      {
        "id": "上越ラーメン-上越市",
        "name": "上越市",
        "prefecture": "新潟県",
        "description": "",
        "lat": 37.1478952,
        "lng": 138.236135
      }
    ]
  },
  {
    "id": "新潟濃厚味噌ラーメン",
    "name": "新潟濃厚味噌ラーメン",
    "imageQuery": "新潟濃厚味噌ラーメン",
    "regions": [
      {
        "id": "新潟濃厚味噌ラーメン-新潟市",
        "name": "新潟市",
        "prefecture": "新潟県",
        "description": "",
        "lat": 37.9185345,
        "lng": 139.069444
      }
    ]
  },
  {
    "id": "寺泊魚のアメ横海鮮",
    "name": "寺泊魚のアメ横海鮮",
    "imageQuery": "寺泊魚のアメ横海鮮",
    "regions": [
      {
        "id": "寺泊魚のアメ横海鮮-長岡市（寺泊）",
        "name": "長岡市（寺泊）",
        "prefecture": "新潟県",
        "description": "",
        "lat": 37.6203796,
        "lng": 138.8137832
      }
    ]
  },
  {
    "id": "燕背脂ラーメン",
    "name": "燕背脂ラーメン",
    "imageQuery": "燕背脂ラーメン",
    "regions": [
      {
        "id": "燕背脂ラーメン-燕市",
        "name": "燕市",
        "prefecture": "新潟県",
        "description": "",
        "lat": 37.6730962,
        "lng": 138.8822389
      }
    ]
  },
  {
    "id": "白えび丼",
    "name": "白えび丼",
    "imageQuery": "白えび丼",
    "regions": [
      {
        "id": "白えび丼-富山市",
        "name": "富山市",
        "prefecture": "富山県",
        "description": "",
        "lat": 36.6958223,
        "lng": 137.2137211
      }
    ]
  },
  {
    "id": "ホタルイカ料理",
    "name": "ホタルイカ料理",
    "imageQuery": "ホタルイカ料理",
    "regions": [
      {
        "id": "ホタルイカ料理-滑川市",
        "name": "滑川市",
        "prefecture": "富山県",
        "description": "",
        "lat": 36.7644132,
        "lng": 137.3411988
      }
    ]
  },
  {
    "id": "ます寿司",
    "name": "ます寿司",
    "imageQuery": "ます寿司",
    "regions": [
      {
        "id": "ます寿司-富山市",
        "name": "富山市",
        "prefecture": "富山県",
        "description": "",
        "lat": 36.6958223,
        "lng": 137.2137211
      }
    ]
  },
  {
    "id": "氷見寒ブリ料理",
    "name": "氷見寒ブリ料理",
    "imageQuery": "氷見寒ブリ料理",
    "regions": [
      {
        "id": "氷見寒ブリ料理-氷見市",
        "name": "氷見市",
        "prefecture": "富山県",
        "description": "",
        "lat": 36.8559412,
        "lng": 136.9728919
      }
    ]
  },
  {
    "id": "ブラックラーメン",
    "name": "ブラックラーメン",
    "imageQuery": "ブラックラーメン",
    "regions": [
      {
        "id": "ブラックラーメン-富山市",
        "name": "富山市",
        "prefecture": "富山県",
        "description": "",
        "lat": 36.6958223,
        "lng": 137.2137211
      }
    ]
  },
  {
    "id": "氷見うどん",
    "name": "氷見うどん",
    "imageQuery": "氷見うどん",
    "regions": [
      {
        "id": "氷見うどん-氷見市",
        "name": "氷見市",
        "prefecture": "富山県",
        "description": "",
        "lat": 36.8559412,
        "lng": 136.9728919
      }
    ]
  },
  {
    "id": "射水ベニズワイガニ料理",
    "name": "射水ベニズワイガニ料理",
    "imageQuery": "射水ベニズワイガニ料理",
    "regions": [
      {
        "id": "射水ベニズワイガニ料理-射水市",
        "name": "射水市",
        "prefecture": "富山県",
        "description": "",
        "lat": 36.7306389,
        "lng": 137.0755452
      }
    ]
  },
  {
    "id": "富山おでん",
    "name": "富山おでん",
    "imageQuery": "富山おでん",
    "regions": [
      {
        "id": "富山おでん-富山市",
        "name": "富山市",
        "prefecture": "富山県",
        "description": "",
        "lat": 36.6958223,
        "lng": 137.2137211
      }
    ]
  },
  {
    "id": "のどぐろ料理",
    "name": "のどぐろ料理",
    "imageQuery": "のどぐろ料理",
    "regions": [
      {
        "id": "のどぐろ料理-金沢市",
        "name": "金沢市",
        "prefecture": "石川県",
        "description": "",
        "lat": 36.5597341,
        "lng": 136.6520376
      }
    ]
  },
  {
    "id": "かに面",
    "name": "かに面",
    "imageQuery": "かに面",
    "regions": [
      {
        "id": "かに面-金沢市",
        "name": "金沢市",
        "prefecture": "石川県",
        "description": "",
        "lat": 36.5597341,
        "lng": 136.6520376
      }
    ]
  },
  {
    "id": "治部煮",
    "name": "治部煮",
    "imageQuery": "治部煮",
    "regions": [
      {
        "id": "治部煮-金沢市",
        "name": "金沢市",
        "prefecture": "石川県",
        "description": "",
        "lat": 36.5597341,
        "lng": 136.6520376
      }
    ]
  },
  {
    "id": "能登かき料理",
    "name": "能登かき料理",
    "imageQuery": "能登かき料理",
    "regions": [
      {
        "id": "能登かき料理-七尾市",
        "name": "七尾市",
        "prefecture": "石川県",
        "description": "",
        "lat": 37.0438483,
        "lng": 136.9641261
      }
    ]
  },
  {
    "id": "金沢カレー",
    "name": "金沢カレー",
    "imageQuery": "金沢カレー",
    "regions": [
      {
        "id": "金沢カレー-金沢市",
        "name": "金沢市",
        "prefecture": "石川県",
        "description": "",
        "lat": 36.5597341,
        "lng": 136.6520376
      }
    ]
  },
  {
    "id": "輪島ふぐ料理",
    "name": "輪島ふぐ料理",
    "imageQuery": "輪島ふぐ料理",
    "regions": [
      {
        "id": "輪島ふぐ料理-輪島市",
        "name": "輪島市",
        "prefecture": "石川県",
        "description": "",
        "lat": 37.3910935,
        "lng": 136.9025211
      }
    ]
  },
  {
    "id": "加賀料理",
    "name": "加賀料理",
    "imageQuery": "加賀料理",
    "regions": [
      {
        "id": "加賀料理-加賀市（山代温泉）",
        "name": "加賀市（山代温泉）",
        "prefecture": "石川県",
        "description": "",
        "lat": 36.2903387,
        "lng": 136.3621086
      }
    ]
  },
  {
    "id": "金沢おでん",
    "name": "金沢おでん",
    "imageQuery": "金沢おでん",
    "regions": [
      {
        "id": "金沢おでん-金沢市",
        "name": "金沢市",
        "prefecture": "石川県",
        "description": "",
        "lat": 36.5597341,
        "lng": 136.6520376
      }
    ]
  },
  {
    "id": "越前ガニ料理",
    "name": "越前ガニ料理",
    "imageQuery": "越前ガニ料理",
    "regions": [
      {
        "id": "越前ガニ料理-越前町",
        "name": "越前町",
        "prefecture": "福井県",
        "description": "",
        "lat": 35.9735806,
        "lng": 136.1312544
      }
    ]
  },
  {
    "id": "越前おろしそば",
    "name": "越前おろしそば",
    "imageQuery": "越前おろしそば",
    "regions": [
      {
        "id": "越前おろしそば-福井市",
        "name": "福井市",
        "prefecture": "福井県",
        "description": "",
        "lat": 36.0641386,
        "lng": 136.219623
      }
    ]
  },
  {
    "id": "焼き鯖寿司",
    "name": "焼き鯖寿司",
    "imageQuery": "焼き鯖寿司",
    "regions": [
      {
        "id": "焼き鯖寿司-小浜市",
        "name": "小浜市",
        "prefecture": "福井県",
        "description": "",
        "lat": 35.4956278,
        "lng": 135.7467206
      }
    ]
  },
  {
    "id": "若狭ふぐ料理",
    "name": "若狭ふぐ料理",
    "imageQuery": "若狭ふぐ料理",
    "regions": [
      {
        "id": "若狭ふぐ料理-小浜市",
        "name": "小浜市",
        "prefecture": "福井県",
        "description": "",
        "lat": 35.4956278,
        "lng": 135.7467206
      }
    ]
  },
  {
    "id": "敦賀ラーメン",
    "name": "敦賀ラーメン",
    "imageQuery": "敦賀ラーメン",
    "regions": [
      {
        "id": "敦賀ラーメン-敦賀市",
        "name": "敦賀市",
        "prefecture": "福井県",
        "description": "",
        "lat": 35.6459465,
        "lng": 136.0556972
      }
    ]
  },
  {
    "id": "今庄そば",
    "name": "今庄そば",
    "imageQuery": "今庄そば",
    "regions": [
      {
        "id": "今庄そば-南越前町",
        "name": "南越前町",
        "prefecture": "福井県",
        "description": "",
        "lat": 35.8331816,
        "lng": 136.1952027
      }
    ]
  },
  {
    "id": "若狭カキ料理",
    "name": "若狭カキ料理",
    "imageQuery": "若狭カキ料理",
    "regions": [
      {
        "id": "若狭カキ料理-小浜市",
        "name": "小浜市",
        "prefecture": "福井県",
        "description": "",
        "lat": 35.4956278,
        "lng": 135.7467206
      }
    ]
  },
  {
    "id": "ほうとう",
    "name": "ほうとう",
    "imageQuery": "ほうとう",
    "regions": [
      {
        "id": "ほうとう-甲府市",
        "name": "甲府市",
        "prefecture": "山梨県",
        "description": "",
        "lat": 35.662133,
        "lng": 138.5683001
      }
    ]
  },
  {
    "id": "鳥もつ煮",
    "name": "鳥もつ煮",
    "imageQuery": "鳥もつ煮",
    "regions": [
      {
        "id": "鳥もつ煮-甲府市",
        "name": "甲府市",
        "prefecture": "山梨県",
        "description": "",
        "lat": 35.662133,
        "lng": 138.5683001
      }
    ]
  },
  {
    "id": "吉田うどん",
    "name": "吉田うどん",
    "imageQuery": "吉田うどん",
    "regions": [
      {
        "id": "吉田うどん-富士吉田市",
        "name": "富士吉田市",
        "prefecture": "山梨県",
        "description": "",
        "lat": 35.4879873,
        "lng": 138.8071879
      }
    ]
  },
  {
    "id": "甲州ほうとう",
    "name": "甲州ほうとう",
    "imageQuery": "甲州ほうとう",
    "regions": [
      {
        "id": "甲州ほうとう-富士河口湖町",
        "name": "富士河口湖町",
        "prefecture": "山梨県",
        "description": "",
        "lat": 35.4973138,
        "lng": 138.7551994
      }
    ]
  },
  {
    "id": "ワインビーフ料理",
    "name": "ワインビーフ料理",
    "imageQuery": "ワインビーフ料理",
    "regions": [
      {
        "id": "ワインビーフ料理-甲州市",
        "name": "甲州市",
        "prefecture": "山梨県",
        "description": "",
        "lat": 35.7042915,
        "lng": 138.7294182
      }
    ]
  },
  {
    "id": "戸隠そば",
    "name": "戸隠そば",
    "imageQuery": "戸隠そば",
    "regions": [
      {
        "id": "戸隠そば-長野市（戸隠）",
        "name": "長野市（戸隠）",
        "prefecture": "長野県",
        "description": "",
        "lat": 36.7313098,
        "lng": 138.0763094
      }
    ]
  },
  {
    "id": "山賊焼き",
    "name": "山賊焼き",
    "imageQuery": "山賊焼き",
    "regions": [
      {
        "id": "山賊焼き-松本市",
        "name": "松本市",
        "prefecture": "長野県",
        "description": "",
        "lat": 36.2380434,
        "lng": 137.9719897
      }
    ]
  },
  {
    "id": "おやき",
    "name": "おやき",
    "imageQuery": "おやき",
    "regions": [
      {
        "id": "おやき-長野市",
        "name": "長野市",
        "prefecture": "長野県",
        "description": "",
        "lat": 36.6485258,
        "lng": 138.1950371
      }
    ]
  },
  {
    "id": "信州サーモン料理",
    "name": "信州サーモン料理",
    "imageQuery": "信州サーモン料理",
    "regions": [
      {
        "id": "信州サーモン料理-松本市",
        "name": "松本市",
        "prefecture": "長野県",
        "description": "",
        "lat": 36.2380434,
        "lng": 137.9719897
      }
    ]
  },
  {
    "id": "野沢菜料理",
    "name": "野沢菜料理",
    "imageQuery": "野沢菜料理",
    "regions": [
      {
        "id": "野沢菜料理-長野市",
        "name": "長野市",
        "prefecture": "長野県",
        "description": "",
        "lat": 36.6485258,
        "lng": 138.1950371
      }
    ]
  },
  {
    "id": "野沢温泉菜料理",
    "name": "野沢温泉菜料理",
    "imageQuery": "野沢温泉菜料理",
    "regions": [
      {
        "id": "野沢温泉菜料理-野沢温泉村",
        "name": "野沢温泉村",
        "prefecture": "長野県",
        "description": "",
        "lat": 36.9228462,
        "lng": 138.4405097
      }
    ]
  },
  {
    "id": "安曇野ラーメン",
    "name": "安曇野ラーメン",
    "imageQuery": "安曇野ラーメン",
    "regions": [
      {
        "id": "安曇野ラーメン-安曇野市",
        "name": "安曇野市",
        "prefecture": "長野県",
        "description": "",
        "lat": 36.1816,
        "lng": 137.5422
      }
    ]
  },
  {
    "id": "信州味噌おでん",
    "name": "信州味噌おでん",
    "imageQuery": "信州味噌おでん",
    "regions": [
      {
        "id": "信州味噌おでん-松本市",
        "name": "松本市",
        "prefecture": "長野県",
        "description": "",
        "lat": 36.2380434,
        "lng": 137.9719897
      }
    ]
  },
  {
    "id": "おしぼりうどん",
    "name": "おしぼりうどん",
    "imageQuery": "おしぼりうどん",
    "regions": [
      {
        "id": "おしぼりうどん-坂城町",
        "name": "坂城町",
        "prefecture": "長野県",
        "description": "",
        "lat": 36.4616691,
        "lng": 138.1803458
      }
    ]
  },
  {
    "id": "飛騨牛料理",
    "name": "飛騨牛料理",
    "imageQuery": "飛騨牛料理",
    "regions": [
      {
        "id": "飛騨牛料理-高山市",
        "name": "高山市",
        "prefecture": "岐阜県",
        "description": "",
        "lat": 36.1461317,
        "lng": 137.252159
      }
    ]
  },
  {
    "id": "鶏ちゃん",
    "name": "鶏ちゃん",
    "imageQuery": "鶏ちゃん",
    "regions": [
      {
        "id": "鶏ちゃん-下呂市",
        "name": "下呂市",
        "prefecture": "岐阜県",
        "description": "",
        "lat": 35.8059163,
        "lng": 137.2441224
      }
    ]
  },
  {
    "id": "朴葉味噌",
    "name": "朴葉味噌",
    "imageQuery": "朴葉味噌",
    "regions": [
      {
        "id": "朴葉味噌-高山市",
        "name": "高山市",
        "prefecture": "岐阜県",
        "description": "",
        "lat": 36.1461317,
        "lng": 137.252159
      }
    ]
  },
  {
    "id": "けいちゃん焼き",
    "name": "けいちゃん焼き",
    "imageQuery": "けいちゃん焼き",
    "regions": [
      {
        "id": "けいちゃん焼き-郡上市",
        "name": "郡上市",
        "prefecture": "岐阜県",
        "description": "",
        "lat": 35.7484949,
        "lng": 136.9643157
      }
    ]
  },
  {
    "id": "奥美濃カレー",
    "name": "奥美濃カレー",
    "imageQuery": "奥美濃カレー",
    "regions": [
      {
        "id": "奥美濃カレー-郡上市",
        "name": "郡上市",
        "prefecture": "岐阜県",
        "description": "",
        "lat": 35.7484949,
        "lng": 136.9643157
      }
    ]
  },
  {
    "id": "奥飛騨温泉郷朴葉味噌",
    "name": "奥飛騨温泉郷朴葉味噌",
    "imageQuery": "奥飛騨温泉郷朴葉味噌",
    "regions": [
      {
        "id": "奥飛騨温泉郷朴葉味噌-高山市（奥飛騨）",
        "name": "高山市（奥飛騨）",
        "prefecture": "岐阜県",
        "description": "",
        "lat": 36.1461317,
        "lng": 137.252159
      }
    ]
  },
  {
    "id": "各務原キムチ鍋",
    "name": "各務原キムチ鍋",
    "imageQuery": "各務原キムチ鍋",
    "regions": [
      {
        "id": "各務原キムチ鍋-各務原市",
        "name": "各務原市",
        "prefecture": "岐阜県",
        "description": "",
        "lat": 35.3989229,
        "lng": 136.8484472
      }
    ]
  },
  {
    "id": "浜松餃子",
    "name": "浜松餃子",
    "imageQuery": "浜松餃子",
    "regions": [
      {
        "id": "浜松餃子-浜松市",
        "name": "浜松市",
        "prefecture": "静岡県",
        "description": "",
        "lat": 34.7102752,
        "lng": 137.7274159
      }
    ]
  },
  {
    "id": "うなぎ料理",
    "name": "うなぎ料理",
    "imageQuery": "うなぎ料理",
    "regions": [
      {
        "id": "うなぎ料理-浜松市",
        "name": "浜松市",
        "prefecture": "静岡県",
        "description": "",
        "lat": 34.7102752,
        "lng": 137.7274159
      }
    ]
  },
  {
    "id": "桜えび料理",
    "name": "桜えび料理",
    "imageQuery": "桜えび料理",
    "regions": [
      {
        "id": "桜えび料理-静岡市（由比）",
        "name": "静岡市（由比）",
        "prefecture": "静岡県",
        "description": "",
        "lat": 35.1116319,
        "lng": 138.5662571
      }
    ]
  },
  {
    "id": "静岡おでん",
    "name": "静岡おでん",
    "imageQuery": "静岡おでん",
    "regions": [
      {
        "id": "静岡おでん-静岡市",
        "name": "静岡市",
        "prefecture": "静岡県",
        "description": "",
        "lat": 34.9755668,
        "lng": 138.3826773
      }
    ]
  },
  {
    "id": "富士宮やきそば",
    "name": "富士宮やきそば",
    "imageQuery": "富士宮やきそば",
    "regions": [
      {
        "id": "富士宮やきそば-富士宮市",
        "name": "富士宮市",
        "prefecture": "静岡県",
        "description": "",
        "lat": 35.2221277,
        "lng": 138.6216491
      }
    ]
  },
  {
    "id": "生しらす丼",
    "name": "生しらす丼",
    "imageQuery": "生しらす丼",
    "regions": [
      {
        "id": "生しらす丼-静岡市",
        "name": "静岡市",
        "prefecture": "静岡県",
        "description": "",
        "lat": 34.9755668,
        "lng": 138.3826773
      }
    ]
  },
  {
    "id": "藤枝朝ラーメン",
    "name": "藤枝朝ラーメン",
    "imageQuery": "藤枝朝ラーメン",
    "regions": [
      {
        "id": "藤枝朝ラーメン-藤枝市",
        "name": "藤枝市",
        "prefecture": "静岡県",
        "description": "",
        "lat": 34.8673376,
        "lng": 138.2575386
      }
    ]
  },
  {
    "id": "焼津カツオ料理",
    "name": "焼津カツオ料理",
    "imageQuery": "焼津カツオ料理",
    "regions": [
      {
        "id": "焼津カツオ料理-焼津市",
        "name": "焼津市",
        "prefecture": "静岡県",
        "description": "",
        "lat": 34.8668816,
        "lng": 138.3233812
      }
    ]
  },
  {
    "id": "沼津アジフライ",
    "name": "沼津アジフライ",
    "imageQuery": "沼津アジフライ",
    "regions": [
      {
        "id": "沼津アジフライ-沼津市",
        "name": "沼津市",
        "prefecture": "静岡県",
        "description": "",
        "lat": 35.0956068,
        "lng": 138.8635399
      }
    ]
  },
  {
    "id": "浜松さわやか系（げんこつハンバーグ）",
    "name": "浜松さわやか系（げんこつハンバーグ）",
    "imageQuery": "浜松さわやか系（げんこつハンバーグ）",
    "regions": [
      {
        "id": "浜松さわやか系（げんこつハンバーグ）-静岡県内広域",
        "name": "静岡県内広域",
        "prefecture": "静岡県",
        "description": "",
        "lat": 35.0929397,
        "lng": 138.3190276
      }
    ]
  },
  {
    "id": "ひつまぶし",
    "name": "ひつまぶし",
    "imageQuery": "ひつまぶし",
    "regions": [
      {
        "id": "ひつまぶし-名古屋市",
        "name": "名古屋市",
        "prefecture": "愛知県",
        "description": "",
        "lat": 35.1814506,
        "lng": 136.9065571
      }
    ]
  },
  {
    "id": "味噌カツ",
    "name": "味噌カツ",
    "imageQuery": "味噌カツ",
    "regions": [
      {
        "id": "味噌カツ-名古屋市",
        "name": "名古屋市",
        "prefecture": "愛知県",
        "description": "",
        "lat": 35.1814506,
        "lng": 136.9065571
      }
    ]
  },
  {
    "id": "手羽先",
    "name": "手羽先",
    "imageQuery": "手羽先",
    "regions": [
      {
        "id": "手羽先-名古屋市",
        "name": "名古屋市",
        "prefecture": "愛知県",
        "description": "",
        "lat": 35.1814506,
        "lng": 136.9065571
      }
    ]
  },
  {
    "id": "きしめん",
    "name": "きしめん",
    "imageQuery": "きしめん",
    "regions": [
      {
        "id": "きしめん-名古屋市",
        "name": "名古屋市",
        "prefecture": "愛知県",
        "description": "",
        "lat": 35.1814506,
        "lng": 136.9065571
      }
    ]
  },
  {
    "id": "あんかけスパ",
    "name": "あんかけスパ",
    "imageQuery": "あんかけスパ",
    "regions": [
      {
        "id": "あんかけスパ-名古屋市",
        "name": "名古屋市",
        "prefecture": "愛知県",
        "description": "",
        "lat": 35.1814506,
        "lng": 136.9065571
      }
    ]
  },
  {
    "id": "台湾ラーメン",
    "name": "台湾ラーメン",
    "imageQuery": "台湾ラーメン",
    "regions": [
      {
        "id": "台湾ラーメン-名古屋市",
        "name": "名古屋市",
        "prefecture": "愛知県",
        "description": "",
        "lat": 35.1814506,
        "lng": 136.9065571
      }
    ]
  },
  {
    "id": "豊橋カレーうどん",
    "name": "豊橋カレーうどん",
    "imageQuery": "豊橋カレーうどん",
    "regions": [
      {
        "id": "豊橋カレーうどん-豊橋市",
        "name": "豊橋市",
        "prefecture": "愛知県",
        "description": "",
        "lat": 34.7688528,
        "lng": 137.3916837
      }
    ]
  },
  {
    "id": "味噌煮込みうどん",
    "name": "味噌煮込みうどん",
    "imageQuery": "味噌煮込みうどん",
    "regions": [
      {
        "id": "味噌煮込みうどん-名古屋市",
        "name": "名古屋市",
        "prefecture": "愛知県",
        "description": "",
        "lat": 35.1814506,
        "lng": 136.9065571
      }
    ]
  },
  {
    "id": "松阪牛料理",
    "name": "松阪牛料理",
    "imageQuery": "松阪牛料理",
    "regions": [
      {
        "id": "松阪牛料理-松阪市",
        "name": "松阪市",
        "prefecture": "三重県",
        "description": "",
        "lat": 34.5779758,
        "lng": 136.5276154
      }
    ]
  },
  {
    "id": "伊勢うどん",
    "name": "伊勢うどん",
    "imageQuery": "伊勢うどん",
    "regions": [
      {
        "id": "伊勢うどん-伊勢市",
        "name": "伊勢市",
        "prefecture": "三重県",
        "description": "",
        "lat": 34.4874863,
        "lng": 136.7092639
      }
    ]
  },
  {
    "id": "てこね寿司",
    "name": "てこね寿司",
    "imageQuery": "てこね寿司",
    "regions": [
      {
        "id": "てこね寿司-志摩市",
        "name": "志摩市",
        "prefecture": "三重県",
        "description": "",
        "lat": 34.3281783,
        "lng": 136.8296341
      }
    ]
  },
  {
    "id": "的矢かき料理",
    "name": "的矢かき料理",
    "imageQuery": "的矢かき料理",
    "regions": [
      {
        "id": "的矢かき料理-志摩市",
        "name": "志摩市",
        "prefecture": "三重県",
        "description": "",
        "lat": 34.3281783,
        "lng": 136.8296341
      }
    ]
  },
  {
    "id": "尾鷲ブリ料理",
    "name": "尾鷲ブリ料理",
    "imageQuery": "尾鷲ブリ料理",
    "regions": [
      {
        "id": "尾鷲ブリ料理-尾鷲市",
        "name": "尾鷲市",
        "prefecture": "三重県",
        "description": "",
        "lat": 34.0707921,
        "lng": 136.1909177
      }
    ]
  },
  {
    "id": "津ぎょうざ",
    "name": "津ぎょうざ",
    "imageQuery": "津ぎょうざ",
    "regions": [
      {
        "id": "津ぎょうざ-津市",
        "name": "津市",
        "prefecture": "三重県",
        "description": "",
        "lat": 34.7186389,
        "lng": 136.5052256
      }
    ]
  },
  {
    "id": "伊勢まぐろ料理",
    "name": "伊勢まぐろ料理",
    "imageQuery": "伊勢まぐろ料理",
    "regions": [
      {
        "id": "伊勢まぐろ料理-伊勢市",
        "name": "伊勢市",
        "prefecture": "三重県",
        "description": "",
        "lat": 34.4874863,
        "lng": 136.7092639
      }
    ]
  },
  {
    "id": "近江牛料理",
    "name": "近江牛料理",
    "imageQuery": "近江牛料理",
    "regions": [
      {
        "id": "近江牛料理-近江八幡市",
        "name": "近江八幡市",
        "prefecture": "滋賀県",
        "description": "",
        "lat": 35.1283594,
        "lng": 136.0979635
      }
    ]
  },
  {
    "id": "鮒ずし",
    "name": "鮒ずし",
    "imageQuery": "鮒ずし",
    "regions": [
      {
        "id": "鮒ずし-高島市",
        "name": "高島市",
        "prefecture": "滋賀県",
        "description": "",
        "lat": 35.3530069,
        "lng": 136.0357401
      }
    ]
  },
  {
    "id": "近江ちゃんぽん",
    "name": "近江ちゃんぽん",
    "imageQuery": "近江ちゃんぽん",
    "regions": [
      {
        "id": "近江ちゃんぽん-彦根市",
        "name": "彦根市",
        "prefecture": "滋賀県",
        "description": "",
        "lat": 35.2743905,
        "lng": 136.2596827
      }
    ]
  },
  {
    "id": "近江牛すき焼き",
    "name": "近江牛すき焼き",
    "imageQuery": "近江牛すき焼き",
    "regions": [
      {
        "id": "近江牛すき焼き-彦根市",
        "name": "彦根市",
        "prefecture": "滋賀県",
        "description": "",
        "lat": 35.2743905,
        "lng": 136.2596827
      }
    ]
  },
  {
    "id": "焼鯖そうめん",
    "name": "焼鯖そうめん",
    "imageQuery": "焼鯖そうめん",
    "regions": [
      {
        "id": "焼鯖そうめん-長浜市",
        "name": "長浜市",
        "prefecture": "滋賀県",
        "description": "",
        "lat": 35.3806116,
        "lng": 136.2783094
      }
    ]
  },
  {
    "id": "湯豆腐",
    "name": "湯豆腐",
    "imageQuery": "湯豆腐",
    "regions": [
      {
        "id": "湯豆腐-京都市（嵐山）",
        "name": "京都市（嵐山）",
        "prefecture": "京都府",
        "description": "",
        "lat": 35.009449,
        "lng": 135.666773
      },
      {
        "id": "湯豆腐-京都市（南禅寺周辺）",
        "name": "京都市（南禅寺周辺）",
        "prefecture": "京都府",
        "description": "",
        "lat": 35.0114138,
        "lng": 135.7944841
      }
    ]
  },
  {
    "id": "にしんそば",
    "name": "にしんそば",
    "imageQuery": "にしんそば",
    "regions": [
      {
        "id": "にしんそば-京都市",
        "name": "京都市",
        "prefecture": "京都府",
        "description": "",
        "lat": 35.011564,
        "lng": 135.7681489
      }
    ]
  },
  {
    "id": "鴨料理",
    "name": "鴨料理",
    "imageQuery": "鴨料理",
    "regions": [
      {
        "id": "鴨料理-京都市",
        "name": "京都市",
        "prefecture": "京都府",
        "description": "",
        "lat": 35.011564,
        "lng": 135.7681489
      }
    ]
  },
  {
    "id": "京懐石",
    "name": "京懐石",
    "imageQuery": "京懐石",
    "regions": [
      {
        "id": "京懐石-京都市",
        "name": "京都市",
        "prefecture": "京都府",
        "description": "",
        "lat": 35.011564,
        "lng": 135.7681489
      }
    ]
  },
  {
    "id": "鯖寿司",
    "name": "鯖寿司",
    "imageQuery": "鯖寿司",
    "regions": [
      {
        "id": "鯖寿司-京都市",
        "name": "京都市",
        "prefecture": "京都府",
        "description": "",
        "lat": 35.011564,
        "lng": 135.7681489
      }
    ]
  },
  {
    "id": "鱧料理",
    "name": "鱧料理",
    "imageQuery": "鱧料理",
    "regions": [
      {
        "id": "鱧料理-京都市",
        "name": "京都市",
        "prefecture": "京都府",
        "description": "",
        "lat": 35.011564,
        "lng": 135.7681489
      }
    ]
  },
  {
    "id": "京うどん",
    "name": "京うどん",
    "imageQuery": "京うどん",
    "regions": [
      {
        "id": "京うどん-京都市",
        "name": "京都市",
        "prefecture": "京都府",
        "description": "",
        "lat": 35.011564,
        "lng": 135.7681489
      }
    ]
  },
  {
    "id": "抹茶",
    "name": "抹茶",
    "imageQuery": "抹茶",
    "regions": [
      {
        "id": "抹茶-京都市",
        "name": "京都市",
        "prefecture": "京都府",
        "description": "",
        "lat": 35.011564,
        "lng": 135.7681489
      }
    ]
  },
  {
    "id": "たこ焼き",
    "name": "たこ焼き",
    "imageQuery": "たこ焼き",
    "regions": [
      {
        "id": "たこ焼き-大阪市（難波）",
        "name": "大阪市（難波）",
        "prefecture": "大阪府",
        "description": "",
        "lat": 34.6657531,
        "lng": 135.5010362
      }
    ]
  },
  {
    "id": "お好み焼き",
    "name": "お好み焼き",
    "imageQuery": "お好み焼き",
    "regions": [
      {
        "id": "お好み焼き-大阪市",
        "name": "大阪市",
        "prefecture": "大阪府",
        "description": "",
        "lat": 34.6937249,
        "lng": 135.5022535
      }
    ]
  },
  {
    "id": "串カツ",
    "name": "串カツ",
    "imageQuery": "串カツ",
    "regions": [
      {
        "id": "串カツ-大阪市（新世界）",
        "name": "大阪市（新世界）",
        "prefecture": "大阪府",
        "description": "",
        "lat": 34.6516013,
        "lng": 135.5059562
      }
    ]
  },
  {
    "id": "かすうどん",
    "name": "かすうどん",
    "imageQuery": "かすうどん",
    "regions": [
      {
        "id": "かすうどん-大阪市",
        "name": "大阪市",
        "prefecture": "大阪府",
        "description": "",
        "lat": 34.6937249,
        "lng": 135.5022535
      }
    ]
  },
  {
    "id": "ホルモン焼き",
    "name": "ホルモン焼き",
    "imageQuery": "ホルモン焼き",
    "regions": [
      {
        "id": "ホルモン焼き-大阪市（鶴橋）",
        "name": "大阪市（鶴橋）",
        "prefecture": "大阪府",
        "description": "",
        "lat": 34.663663,
        "lng": 135.5352203
      }
    ]
  },
  {
    "id": "自由軒カレー",
    "name": "自由軒カレー",
    "imageQuery": "自由軒カレー",
    "regions": [
      {
        "id": "自由軒カレー-大阪市",
        "name": "大阪市",
        "prefecture": "大阪府",
        "description": "",
        "lat": 34.6937249,
        "lng": 135.5022535
      }
    ]
  },
  {
    "id": "イカ焼き",
    "name": "イカ焼き",
    "imageQuery": "イカ焼き",
    "regions": [
      {
        "id": "イカ焼き-大阪市",
        "name": "大阪市",
        "prefecture": "大阪府",
        "description": "",
        "lat": 34.6937249,
        "lng": 135.5022535
      }
    ]
  },
  {
    "id": "肉吸い",
    "name": "肉吸い",
    "imageQuery": "肉吸い",
    "regions": [
      {
        "id": "肉吸い-大阪市",
        "name": "大阪市",
        "prefecture": "大阪府",
        "description": "",
        "lat": 34.6937249,
        "lng": 135.5022535
      }
    ]
  },
  {
    "id": "明石焼き",
    "name": "明石焼き",
    "imageQuery": "明石焼き",
    "regions": [
      {
        "id": "明石焼き-明石市",
        "name": "明石市",
        "prefecture": "兵庫県",
        "description": "",
        "lat": 34.6432078,
        "lng": 134.9975859
      }
    ]
  },
  {
    "id": "神戸牛料理",
    "name": "神戸牛料理",
    "imageQuery": "神戸牛料理",
    "regions": [
      {
        "id": "神戸牛料理-神戸市",
        "name": "神戸市",
        "prefecture": "兵庫県",
        "description": "",
        "lat": 34.6900806,
        "lng": 135.1956311
      }
    ]
  },
  {
    "id": "ぼっかけ",
    "name": "ぼっかけ",
    "imageQuery": "ぼっかけ",
    "regions": [
      {
        "id": "ぼっかけ-神戸市",
        "name": "神戸市",
        "prefecture": "兵庫県",
        "description": "",
        "lat": 34.6900806,
        "lng": 135.1956311
      }
    ]
  },
  {
    "id": "出石そば",
    "name": "出石そば",
    "imageQuery": "出石そば",
    "regions": [
      {
        "id": "出石そば-豊岡市",
        "name": "豊岡市",
        "prefecture": "兵庫県",
        "description": "",
        "lat": 35.544556,
        "lng": 134.8202406
      }
    ]
  },
  {
    "id": "淡路島玉ねぎ料理",
    "name": "淡路島玉ねぎ料理",
    "imageQuery": "淡路島玉ねぎ料理",
    "regions": [
      {
        "id": "淡路島玉ねぎ料理-淡路市",
        "name": "淡路市",
        "prefecture": "兵庫県",
        "description": "",
        "lat": 34.4396558,
        "lng": 134.9149109
      }
    ]
  },
  {
    "id": "赤穂塩ラーメン",
    "name": "赤穂塩ラーメン",
    "imageQuery": "赤穂塩ラーメン",
    "regions": [
      {
        "id": "赤穂塩ラーメン-赤穂市",
        "name": "赤穂市",
        "prefecture": "兵庫県",
        "description": "",
        "lat": 34.7550685,
        "lng": 134.3902271
      }
    ]
  },
  {
    "id": "姫路ラーメン",
    "name": "姫路ラーメン",
    "imageQuery": "姫路ラーメン",
    "regions": [
      {
        "id": "姫路ラーメン-姫路市",
        "name": "姫路市",
        "prefecture": "兵庫県",
        "description": "",
        "lat": 34.8154176,
        "lng": 134.6855509
      }
    ]
  },
  {
    "id": "香住ガニ料理",
    "name": "香住ガニ料理",
    "imageQuery": "香住ガニ料理",
    "regions": [
      {
        "id": "香住ガニ料理-香美町",
        "name": "香美町",
        "prefecture": "兵庫県",
        "description": "",
        "lat": 35.6377104,
        "lng": 134.6272339
      }
    ]
  },
  {
    "id": "姫路おでん",
    "name": "姫路おでん",
    "imageQuery": "姫路おでん",
    "regions": [
      {
        "id": "姫路おでん-姫路市",
        "name": "姫路市",
        "prefecture": "兵庫県",
        "description": "",
        "lat": 34.8154176,
        "lng": 134.6855509
      }
    ]
  },
  {
    "id": "明石鯛料理",
    "name": "明石鯛料理",
    "imageQuery": "明石鯛料理",
    "regions": [
      {
        "id": "明石鯛料理-明石市",
        "name": "明石市",
        "prefecture": "兵庫県",
        "description": "",
        "lat": 34.6432078,
        "lng": 134.9975859
      }
    ]
  },
  {
    "id": "柿の葉寿司",
    "name": "柿の葉寿司",
    "imageQuery": "柿の葉寿司",
    "regions": [
      {
        "id": "柿の葉寿司-吉野町",
        "name": "吉野町",
        "prefecture": "奈良県",
        "description": "",
        "lat": 34.396001,
        "lng": 135.857574
      }
    ]
  },
  {
    "id": "三輪そうめん料理",
    "name": "三輪そうめん料理",
    "imageQuery": "三輪そうめん料理",
    "regions": [
      {
        "id": "三輪そうめん料理-桜井市",
        "name": "桜井市",
        "prefecture": "奈良県",
        "description": "",
        "lat": 34.5186708,
        "lng": 135.8432263
      }
    ]
  },
  {
    "id": "奈良ラーメン",
    "name": "奈良ラーメン",
    "imageQuery": "奈良ラーメン",
    "regions": [
      {
        "id": "奈良ラーメン-奈良市",
        "name": "奈良市",
        "prefecture": "奈良県",
        "description": "",
        "lat": 34.685109,
        "lng": 135.8048019
      }
    ]
  },
  {
    "id": "奈良茶粥",
    "name": "奈良茶粥",
    "imageQuery": "奈良茶粥",
    "regions": [
      {
        "id": "奈良茶粥-奈良市",
        "name": "奈良市",
        "prefecture": "奈良県",
        "description": "",
        "lat": 34.685109,
        "lng": 135.8048019
      }
    ]
  },
  {
    "id": "大和肉鶏料理",
    "name": "大和肉鶏料理",
    "imageQuery": "大和肉鶏料理",
    "regions": [
      {
        "id": "大和肉鶏料理-天理市",
        "name": "天理市",
        "prefecture": "奈良県",
        "description": "",
        "lat": 34.5966597,
        "lng": 135.8373605
      }
    ]
  },
  {
    "id": "梅うどん",
    "name": "梅うどん",
    "imageQuery": "梅うどん",
    "regions": [
      {
        "id": "梅うどん-みなべ町",
        "name": "みなべ町",
        "prefecture": "和歌山県",
        "description": "",
        "lat": 33.7678758,
        "lng": 135.3176872
      }
    ]
  },
  {
    "id": "マグロ料理",
    "name": "マグロ料理",
    "imageQuery": "マグロ料理",
    "regions": [
      {
        "id": "マグロ料理-那智勝浦町",
        "name": "那智勝浦町",
        "prefecture": "和歌山県",
        "description": "",
        "lat": 33.6281006,
        "lng": 135.941153
      }
    ]
  },
  {
    "id": "和歌山ラーメン",
    "name": "和歌山ラーメン",
    "imageQuery": "和歌山ラーメン",
    "regions": [
      {
        "id": "和歌山ラーメン-和歌山市",
        "name": "和歌山市",
        "prefecture": "和歌山県",
        "description": "",
        "lat": 34.2303678,
        "lng": 135.1707405
      }
    ]
  },
  {
    "id": "クエ料理",
    "name": "クエ料理",
    "imageQuery": "クエ料理",
    "regions": [
      {
        "id": "クエ料理-すさみ町",
        "name": "すさみ町",
        "prefecture": "和歌山県",
        "description": "",
        "lat": 33.5501227,
        "lng": 135.4966256
      }
    ]
  },
  {
    "id": "加太鯛料理",
    "name": "加太鯛料理",
    "imageQuery": "加太鯛料理",
    "regions": [
      {
        "id": "加太鯛料理-和歌山市",
        "name": "和歌山市",
        "prefecture": "和歌山県",
        "description": "",
        "lat": 34.2303678,
        "lng": 135.1707405
      }
    ]
  },
  {
    "id": "梅とんかつ",
    "name": "梅とんかつ",
    "imageQuery": "梅とんかつ",
    "regions": [
      {
        "id": "梅とんかつ-みなべ町",
        "name": "みなべ町",
        "prefecture": "和歌山県",
        "description": "",
        "lat": 33.7678758,
        "lng": 135.3176872
      }
    ]
  },
  {
    "id": "デミカツ丼",
    "name": "デミカツ丼",
    "imageQuery": "デミカツ丼",
    "regions": [
      {
        "id": "デミカツ丼-岡山市",
        "name": "岡山市",
        "prefecture": "岡山県",
        "description": "",
        "lat": 34.656228,
        "lng": 133.9194179
      }
    ]
  },
  {
    "id": "ホルモンうどん",
    "name": "ホルモンうどん",
    "imageQuery": "ホルモンうどん",
    "regions": [
      {
        "id": "ホルモンうどん-津山市",
        "name": "津山市",
        "prefecture": "岡山県",
        "description": "",
        "lat": 35.0691643,
        "lng": 134.0045802
      }
    ]
  },
  {
    "id": "ままかり寿司",
    "name": "ままかり寿司",
    "imageQuery": "ままかり寿司",
    "regions": [
      {
        "id": "ままかり寿司-岡山市",
        "name": "岡山市",
        "prefecture": "岡山県",
        "description": "",
        "lat": 34.656228,
        "lng": 133.9194179
      }
    ]
  },
  {
    "id": "日生カキオコ",
    "name": "日生カキオコ",
    "imageQuery": "日生カキオコ",
    "regions": [
      {
        "id": "日生カキオコ-備前市（日生）",
        "name": "備前市（日生）",
        "prefecture": "岡山県",
        "description": "",
        "lat": 34.7258104,
        "lng": 134.2621146
      }
    ]
  },
  {
    "id": "津山そずり鍋",
    "name": "津山そずり鍋",
    "imageQuery": "津山そずり鍋",
    "regions": [
      {
        "id": "津山そずり鍋-津山市",
        "name": "津山市",
        "prefecture": "岡山県",
        "description": "",
        "lat": 35.0691643,
        "lng": 134.0045802
      }
    ]
  },
  {
    "id": "広島風お好み焼き",
    "name": "広島風お好み焼き",
    "imageQuery": "広島風お好み焼き",
    "regions": [
      {
        "id": "広島風お好み焼き-広島市",
        "name": "広島市",
        "prefecture": "広島県",
        "description": "",
        "lat": 34.3852894,
        "lng": 132.4553055
      }
    ]
  },
  {
    "id": "尾道ラーメン",
    "name": "尾道ラーメン",
    "imageQuery": "尾道ラーメン",
    "regions": [
      {
        "id": "尾道ラーメン-尾道市",
        "name": "尾道市",
        "prefecture": "広島県",
        "description": "",
        "lat": 34.4088998,
        "lng": 133.2049142
      }
    ]
  },
  {
    "id": "穴子飯",
    "name": "穴子飯",
    "imageQuery": "穴子飯",
    "regions": [
      {
        "id": "穴子飯-廿日市市（宮島）",
        "name": "廿日市市（宮島）",
        "prefecture": "広島県",
        "description": "",
        "lat": 34.2732114,
        "lng": 132.3052488
      }
    ]
  },
  {
    "id": "汁なし担々麺",
    "name": "汁なし担々麺",
    "imageQuery": "汁なし担々麺",
    "regions": [
      {
        "id": "汁なし担々麺-広島市",
        "name": "広島市",
        "prefecture": "広島県",
        "description": "",
        "lat": 34.3852894,
        "lng": 132.4553055
      }
    ]
  },
  {
    "id": "呉海自カレー",
    "name": "呉海自カレー",
    "imageQuery": "呉海自カレー",
    "regions": [
      {
        "id": "呉海自カレー-呉市",
        "name": "呉市",
        "prefecture": "広島県",
        "description": "",
        "lat": 34.2489485,
        "lng": 132.5655271
      }
    ]
  },
  {
    "id": "広島つけ麺",
    "name": "広島つけ麺",
    "imageQuery": "広島つけ麺",
    "regions": [
      {
        "id": "広島つけ麺-広島市",
        "name": "広島市",
        "prefecture": "広島県",
        "description": "",
        "lat": 34.3852894,
        "lng": 132.4553055
      }
    ]
  },
  {
    "id": "呉冷麺",
    "name": "呉冷麺",
    "imageQuery": "呉冷麺",
    "regions": [
      {
        "id": "呉冷麺-呉市",
        "name": "呉市",
        "prefecture": "広島県",
        "description": "",
        "lat": 34.2489485,
        "lng": 132.5655271
      }
    ]
  },
  {
    "id": "ふぐ料理",
    "name": "ふぐ料理",
    "imageQuery": "ふぐ料理",
    "regions": [
      {
        "id": "ふぐ料理-下関市",
        "name": "下関市",
        "prefecture": "山口県",
        "description": "",
        "lat": 33.9575296999999,
        "lng": 130.9411759
      }
    ]
  },
  {
    "id": "瓦そば",
    "name": "瓦そば",
    "imageQuery": "瓦そば",
    "regions": [
      {
        "id": "瓦そば-下関市",
        "name": "下関市",
        "prefecture": "山口県",
        "description": "",
        "lat": 33.9575296999999,
        "lng": 130.9411759
      }
    ]
  },
  {
    "id": "岩国寿司",
    "name": "岩国寿司",
    "imageQuery": "岩国寿司",
    "regions": [
      {
        "id": "岩国寿司-岩国市",
        "name": "岩国市",
        "prefecture": "山口県",
        "description": "",
        "lat": 34.1667451,
        "lng": 132.2191641
      }
    ]
  },
  {
    "id": "長門焼き鳥",
    "name": "長門焼き鳥",
    "imageQuery": "長門焼き鳥",
    "regions": [
      {
        "id": "長門焼き鳥-長門市",
        "name": "長門市",
        "prefecture": "山口県",
        "description": "",
        "lat": 34.370856,
        "lng": 131.18262
      }
    ]
  },
  {
    "id": "牛骨ラーメン",
    "name": "牛骨ラーメン",
    "imageQuery": "牛骨ラーメン",
    "regions": [
      {
        "id": "牛骨ラーメン-米子市",
        "name": "米子市",
        "prefecture": "鳥取県",
        "description": "",
        "lat": 35.4281164,
        "lng": 133.3309966
      },
      {
        "id": "牛骨ラーメン-倉吉市",
        "name": "倉吉市",
        "prefecture": "鳥取県",
        "description": "",
        "lat": 35.4304213,
        "lng": 133.8260633
      }
    ]
  },
  {
    "id": "境港マグロ料理",
    "name": "境港マグロ料理",
    "imageQuery": "境港マグロ料理",
    "regions": [
      {
        "id": "境港マグロ料理-境港市",
        "name": "境港市",
        "prefecture": "鳥取県",
        "description": "",
        "lat": 35.5396534,
        "lng": 133.2316204
      }
    ]
  },
  {
    "id": "砂丘らっきょう料理",
    "name": "砂丘らっきょう料理",
    "imageQuery": "砂丘らっきょう料理",
    "regions": [
      {
        "id": "砂丘らっきょう料理-鳥取市",
        "name": "鳥取市",
        "prefecture": "鳥取県",
        "description": "",
        "lat": 35.5011082,
        "lng": 134.2351011
      }
    ]
  },
  {
    "id": "白イカ料理",
    "name": "白イカ料理",
    "imageQuery": "白イカ料理",
    "regions": [
      {
        "id": "白イカ料理-鳥取市",
        "name": "鳥取市",
        "prefecture": "鳥取県",
        "description": "",
        "lat": 35.5011082,
        "lng": 134.2351011
      }
    ]
  },
  {
    "id": "出雲そば",
    "name": "出雲そば",
    "imageQuery": "出雲そば",
    "regions": [
      {
        "id": "出雲そば-出雲市",
        "name": "出雲市",
        "prefecture": "島根県",
        "description": "",
        "lat": 35.3670442,
        "lng": 132.7546943
      }
    ]
  },
  {
    "id": "しじみラーメン",
    "name": "しじみラーメン",
    "imageQuery": "しじみラーメン",
    "regions": [
      {
        "id": "しじみラーメン-松江市",
        "name": "松江市",
        "prefecture": "島根県",
        "description": "",
        "lat": 35.4681908,
        "lng": 133.0484055
      }
    ]
  },
  {
    "id": "しじみ汁・しじみ料理",
    "name": "しじみ汁・しじみ料理",
    "imageQuery": "しじみ汁・しじみ料理",
    "regions": [
      {
        "id": "しじみ汁・しじみ料理-松江市",
        "name": "松江市",
        "prefecture": "島根県",
        "description": "",
        "lat": 35.4681908,
        "lng": 133.0484055
      }
    ]
  },
  {
    "id": "宍道湖七珍料理",
    "name": "宍道湖七珍料理",
    "imageQuery": "宍道湖七珍料理",
    "regions": [
      {
        "id": "宍道湖七珍料理-松江市",
        "name": "松江市",
        "prefecture": "島根県",
        "description": "",
        "lat": 35.4681908,
        "lng": 133.0484055
      }
    ]
  },
  {
    "id": "浜田赤天",
    "name": "浜田赤天",
    "imageQuery": "浜田赤天",
    "regions": [
      {
        "id": "浜田赤天-浜田市",
        "name": "浜田市",
        "prefecture": "島根県",
        "description": "",
        "lat": 34.8993937,
        "lng": 132.0802638
      }
    ]
  },
  {
    "id": "隠岐岩牡蠣料理",
    "name": "隠岐岩牡蠣料理",
    "imageQuery": "隠岐岩牡蠣料理",
    "regions": [
      {
        "id": "隠岐岩牡蠣料理-隠岐の島町",
        "name": "隠岐の島町",
        "prefecture": "島根県",
        "description": "",
        "lat": 36.1214,
        "lng": 133.1959
      }
    ]
  },
  {
    "id": "讃岐うどん",
    "name": "讃岐うどん",
    "imageQuery": "讃岐うどん",
    "regions": [
      {
        "id": "讃岐うどん-高松市",
        "name": "高松市",
        "prefecture": "香川県",
        "description": "",
        "lat": 34.342542,
        "lng": 134.0465405
      },
      {
        "id": "讃岐うどん-丸亀市",
        "name": "丸亀市",
        "prefecture": "香川県",
        "description": "",
        "lat": 34.2893547,
        "lng": 133.797643
      },
      {
        "id": "讃岐うどん-観音寺市",
        "name": "観音寺市",
        "prefecture": "香川県",
        "description": "",
        "lat": 34.1284357,
        "lng": 133.6628477
      }
    ]
  },
  {
    "id": "骨付鳥",
    "name": "骨付鳥",
    "imageQuery": "骨付鳥",
    "regions": [
      {
        "id": "骨付鳥-丸亀市",
        "name": "丸亀市",
        "prefecture": "香川県",
        "description": "",
        "lat": 34.2893547,
        "lng": 133.797643
      }
    ]
  },
  {
    "id": "小豆島そうめん料理",
    "name": "小豆島そうめん料理",
    "imageQuery": "小豆島そうめん料理",
    "regions": [
      {
        "id": "小豆島そうめん料理-小豆島町",
        "name": "小豆島町",
        "prefecture": "香川県",
        "description": "",
        "lat": 34.4818325,
        "lng": 134.2336123
      }
    ]
  },
  {
    "id": "しっぽくうどん",
    "name": "しっぽくうどん",
    "imageQuery": "しっぽくうどん",
    "regions": [
      {
        "id": "しっぽくうどん-高松市",
        "name": "高松市",
        "prefecture": "香川県",
        "description": "",
        "lat": 34.342542,
        "lng": 134.0465405
      }
    ]
  },
  {
    "id": "小豆島オリーブ牛料理",
    "name": "小豆島オリーブ牛料理",
    "imageQuery": "小豆島オリーブ牛料理",
    "regions": [
      {
        "id": "小豆島オリーブ牛料理-小豆島町",
        "name": "小豆島町",
        "prefecture": "香川県",
        "description": "",
        "lat": 34.4818325,
        "lng": 134.2336123
      }
    ]
  },
  {
    "id": "徳島ラーメン",
    "name": "徳島ラーメン",
    "imageQuery": "徳島ラーメン",
    "regions": [
      {
        "id": "徳島ラーメン-徳島市",
        "name": "徳島市",
        "prefecture": "徳島県",
        "description": "",
        "lat": 34.0703652,
        "lng": 134.5549537
      }
    ]
  },
  {
    "id": "阿波尾鶏料理",
    "name": "阿波尾鶏料理",
    "imageQuery": "阿波尾鶏料理",
    "regions": [
      {
        "id": "阿波尾鶏料理-徳島市",
        "name": "徳島市",
        "prefecture": "徳島県",
        "description": "",
        "lat": 34.0703652,
        "lng": 134.5549537
      }
    ]
  },
  {
    "id": "徳島すだち鶏料理",
    "name": "徳島すだち鶏料理",
    "imageQuery": "徳島すだち鶏料理",
    "regions": [
      {
        "id": "徳島すだち鶏料理-徳島市",
        "name": "徳島市",
        "prefecture": "徳島県",
        "description": "",
        "lat": 34.0703652,
        "lng": 134.5549537
      }
    ]
  },
  {
    "id": "徳島フィッシュカツ",
    "name": "徳島フィッシュカツ",
    "imageQuery": "徳島フィッシュカツ",
    "regions": [
      {
        "id": "徳島フィッシュカツ-徳島市",
        "name": "徳島市",
        "prefecture": "徳島県",
        "description": "",
        "lat": 34.0703652,
        "lng": 134.5549537
      }
    ]
  },
  {
    "id": "鳴門鯛料理",
    "name": "鳴門鯛料理",
    "imageQuery": "鳴門鯛料理",
    "regions": [
      {
        "id": "鳴門鯛料理-鳴門市",
        "name": "鳴門市",
        "prefecture": "徳島県",
        "description": "",
        "lat": 34.1726034,
        "lng": 134.608866
      }
    ]
  },
  {
    "id": "鯛めし",
    "name": "鯛めし",
    "imageQuery": "鯛めし",
    "regions": [
      {
        "id": "鯛めし-宇和島市",
        "name": "宇和島市",
        "prefecture": "愛媛県",
        "description": "",
        "lat": 33.2235707,
        "lng": 132.560384
      }
    ]
  },
  {
    "id": "焼豚玉子飯",
    "name": "焼豚玉子飯",
    "imageQuery": "焼豚玉子飯",
    "regions": [
      {
        "id": "焼豚玉子飯-今治市",
        "name": "今治市",
        "prefecture": "愛媛県",
        "description": "",
        "lat": 34.0662024,
        "lng": 132.9977906
      }
    ]
  },
  {
    "id": "じゃこ天",
    "name": "じゃこ天",
    "imageQuery": "じゃこ天",
    "regions": [
      {
        "id": "じゃこ天-宇和島市",
        "name": "宇和島市",
        "prefecture": "愛媛県",
        "description": "",
        "lat": 33.2235707,
        "lng": 132.560384
      }
    ]
  },
  {
    "id": "今治焼き鳥",
    "name": "今治焼き鳥",
    "imageQuery": "今治焼き鳥",
    "regions": [
      {
        "id": "今治焼き鳥-今治市",
        "name": "今治市",
        "prefecture": "愛媛県",
        "description": "",
        "lat": 34.0662024,
        "lng": 132.9977906
      }
    ]
  },
  {
    "id": "道後鯛めし",
    "name": "道後鯛めし",
    "imageQuery": "道後鯛めし",
    "regions": [
      {
        "id": "道後鯛めし-松山市",
        "name": "松山市",
        "prefecture": "愛媛県",
        "description": "",
        "lat": 33.8355117,
        "lng": 132.7639923
      }
    ]
  },
  {
    "id": "カツオのたたき",
    "name": "カツオのたたき",
    "imageQuery": "カツオのたたき",
    "regions": [
      {
        "id": "カツオのたたき-高知市",
        "name": "高知市",
        "prefecture": "高知県",
        "description": "",
        "lat": 33.5588821,
        "lng": 133.5312383
      },
      {
        "id": "カツオのたたき-土佐清水市",
        "name": "土佐清水市",
        "prefecture": "高知県",
        "description": "",
        "lat": 32.7815775,
        "lng": 132.9550004
      }
    ]
  },
  {
    "id": "清水さば料理",
    "name": "清水さば料理",
    "imageQuery": "清水さば料理",
    "regions": [
      {
        "id": "清水さば料理-土佐清水市",
        "name": "土佐清水市",
        "prefecture": "高知県",
        "description": "",
        "lat": 32.7815775,
        "lng": 132.9550004
      }
    ]
  },
  {
    "id": "鍋焼きラーメン",
    "name": "鍋焼きラーメン",
    "imageQuery": "鍋焼きラーメン",
    "regions": [
      {
        "id": "鍋焼きラーメン-須崎市",
        "name": "須崎市",
        "prefecture": "高知県",
        "description": "",
        "lat": 33.400844,
        "lng": 133.2829397
      }
    ]
  },
  {
    "id": "土佐あかうし料理",
    "name": "土佐あかうし料理",
    "imageQuery": "土佐あかうし料理",
    "regions": [
      {
        "id": "土佐あかうし料理-本山町",
        "name": "本山町",
        "prefecture": "高知県",
        "description": "",
        "lat": 33.7571057,
        "lng": 133.5913505
      }
    ]
  },
  {
    "id": "四万十うなぎ",
    "name": "四万十うなぎ",
    "imageQuery": "四万十うなぎ",
    "regions": [
      {
        "id": "四万十うなぎ-四万十市",
        "name": "四万十市",
        "prefecture": "高知県",
        "description": "",
        "lat": 32.9913865,
        "lng": 132.9337854
      }
    ]
  },
  {
    "id": "博多ラーメン",
    "name": "博多ラーメン",
    "imageQuery": "博多ラーメン",
    "regions": [
      {
        "id": "博多ラーメン-福岡市（博多区）",
        "name": "福岡市（博多区）",
        "prefecture": "福岡県",
        "description": "",
        "lat": 33.5835196,
        "lng": 130.4372709
      }
    ]
  },
  {
    "id": "長浜ラーメン",
    "name": "長浜ラーメン",
    "imageQuery": "長浜ラーメン",
    "regions": [
      {
        "id": "長浜ラーメン-福岡市（中央区・長浜）",
        "name": "福岡市（中央区・長浜）",
        "prefecture": "福岡県",
        "description": "",
        "lat": 33.5941193,
        "lng": 130.3899507
      }
    ]
  },
  {
    "id": "もつ鍋",
    "name": "もつ鍋",
    "imageQuery": "もつ鍋",
    "regions": [
      {
        "id": "もつ鍋-福岡市",
        "name": "福岡市",
        "prefecture": "福岡県",
        "description": "",
        "lat": 33.5901838,
        "lng": 130.4016888
      }
    ]
  },
  {
    "id": "水炊き",
    "name": "水炊き",
    "imageQuery": "水炊き",
    "regions": [
      {
        "id": "水炊き-福岡市",
        "name": "福岡市",
        "prefecture": "福岡県",
        "description": "",
        "lat": 33.5901838,
        "lng": 130.4016888
      }
    ]
  },
  {
    "id": "焼きラーメン",
    "name": "焼きラーメン",
    "imageQuery": "焼きラーメン",
    "regions": [
      {
        "id": "焼きラーメン-福岡市",
        "name": "福岡市",
        "prefecture": "福岡県",
        "description": "",
        "lat": 33.5901838,
        "lng": 130.4016888
      }
    ]
  },
  {
    "id": "鉄なべ餃子",
    "name": "鉄なべ餃子",
    "imageQuery": "鉄なべ餃子",
    "regions": [
      {
        "id": "鉄なべ餃子-北九州市",
        "name": "北九州市",
        "prefecture": "福岡県",
        "description": "",
        "lat": 33.8834976,
        "lng": 130.8751773
      }
    ]
  },
  {
    "id": "筑豊ラーメン",
    "name": "筑豊ラーメン",
    "imageQuery": "筑豊ラーメン",
    "regions": [
      {
        "id": "筑豊ラーメン-飯塚市",
        "name": "飯塚市",
        "prefecture": "福岡県",
        "description": "",
        "lat": 33.6465627,
        "lng": 130.6911797
      }
    ]
  },
  {
    "id": "久留米焼き鳥",
    "name": "久留米焼き鳥",
    "imageQuery": "久留米焼き鳥",
    "regions": [
      {
        "id": "久留米焼き鳥-久留米市",
        "name": "久留米市",
        "prefecture": "福岡県",
        "description": "",
        "lat": 33.3192356,
        "lng": 130.5083557
      }
    ]
  },